Center Name,Permit Holder,Address,Borough,Zip Code,Phone,Permit Number,Permit Expiration Date,Permit Status,Age Range,Maximum Capacity,Certified to Administer Medication,Site Type,Lon,Lat
LITTLE PICKLES  DAY CARE CENTER / LITTLE PICKLES,ERL GROUP LLC,2169 CONEY ISLAND AVENUE,BROOKLYN,11223,718-676-1725,13237 / 32577,3/6/2014 / 2/14/2015,  Expired-InRenewal /   Permitted,0 YEARS - 5 YEARS,32,No,Private,-73.961371,40.60421
1199 FUTURE OF AMERCIA  LEARNING CENTER / 1199 FUTURE OF AMERICA LEARNING CENTER,1199 SEIU CHILD CARE CORPORATION / 1199 S E I U CHILD CARE CORPORATION,2500 CRESTON AVENUE,BRONX,10468,718-562-2915,7455 / 7457,7/31/2015 / 10/31/2015,  Permitted /   Permitted,0 YEARS - 5 YEARS,132,No,Private,-73.897433,40.862995
123 STEP AHEAD,DENIZKO DAY CARE INC,51-07 69 STREET,QUEENS,11377,718-426-0123,10777,1/9/2016,  Permitted,2 YEARS - 5 YEARS,26,No,Private,-73.895716,40.734911
1332 FULTON  DAY CARE CENTER / UNITED BRONX PARENTS INC,1332 FULTON AVENUE DAY CARE CENTER INC / UNITED BRONX PARENTS INC,1332 FULTON AVENUE,BRONX,10456,718-378-1330,4055 / 29597,11/19/2014 / 12/19/2014,  Permitted /   Permitted,2 YEARS - 5 YEARS,167,No,ACS Contracted Preschools,-73.902497,40.832982
14TH STREET Y PRESCHOOL OF THE EDUCTIONAL ALLIANCE   AKA GANI ECC,THE EDUCATIONAL ALLIANCE INC,344 EAST 14 STREET,MANHATTAN,10003,212-780-0800,6440,7/21/2015,  Permitted,2 YEARS - 5 YEARS,88,No,Private,-73.983362,40.731198
196 ALBANY AVENUE DAY CARE,196 ALBANY AVENUE DAY CARE CENTER INC,196 ALBANY AVENUE,BROOKLYN,11213,718-773-0071,4003,6/19/2015,  Permitted,2 YEARS - 5 YEARS,170,No,ACS Contracted Preschools,-73.939281,40.673992
1ST IMPRESSION CHILDCARE AND  DEVELOPMENT CENTER INC,1ST IMPRESSION CHILDCARE AND DEVELOPMENT CENTER INC,881 GERARD AVENUE,BRONX,10452,718-588-3800,7905,8/19/2014,  Permitted,2 YEARS - 5 YEARS,41,No,Private,-73.924904,40.82826
3467 READY SET  LEARN L L C,3467 READY SET LEARN L L C,3463-67 3 AVENUE,BRONX,10456,718-665-1234,8178,8/11/2014,  Permitted,2 YEARS - 5 YEARS,177,Yes,Private,-73.906675,40.829979
4 ANGELS DAY CARE INC - INFANT PROGRAM / 4 ANGELS DAY CARE INC - PRESCHOOL PROGRAM,4 ANGELS DAY CARE INC,245 SIMONSON AVENUE,STATEN ISLAND,10303,718-876-6498,7533 / 7415,7/5/2015 / 7/5/2015,  Permitted /   Permitted,0 YEARS - 5 YEARS,41,Yes,Private,-74.152139,40.630452
43RD STREET KIDS PRESCHOOL INC,43RD STREET KIDS PRESCHOOL INC,484 WEST 43 STREET,MANHATTAN,10036,212-564-7496,5185,5/16/2014,  Permitted,2 YEARS - 5 YEARS,26,No,Private,-73.994737,40.759735
82ND STREET ACADEMICS,82ND STREET  ACADEMICS INC,81-10 35 AVENUE,QUEENS,11372,718-457-0429,7006,8/11/2014,  Permitted,2 YEARS - 5 YEARS,145,No,Private,-73.885261,40.751499
92ND ST Y NURSERY SCHOOL,92ND ST Y M  Y W H A,1395 LEXINGTON AVENUE,MANHATTAN,10128,212-415-5532,1940,6/13/2014,  Permitted,2 YEARS - 5 YEARS,170,No,Private,-73.952518,40.782934
A  E CAROUSEL DAYCARE,A  E CAROUSEL DAY CAREINC,150 CLERMONT AVENUE,BROOKLYN,11205,718-596-7912,8270,3/31/2015,  Permitted,2 YEARS - 5 YEARS,25,No,Private,-73.97119,40.693517
A B C  ECHO PARK EARLY CHILDHOOD DEVELOPMENT CENTER / ABC ECHO PARK EARLY CHILDHOOD CENTER,ASSOCIATION TO BENEFIT CHILDREN,1841 PARK AVENUE,MANHATTAN,10035,646-459-6028,7309 / 7344,12/15/2014 / 1/28/2016,  Permitted /   Permitted,0 YEARS - 5 YEARS,146,Yes,ACS Head Start / Private,-73.938007,40.805692
A BETTER STARTINC,A BETTER STARTINC,2339 TIEBOUT AVENUE,BRONX,10458,718-676-1796,8404,10/19/2015,  Permitted,2 YEARS - 5 YEARS,29,No,Private,-73.89697,40.857518
A CASTLE FOR  CLASSY KIDS LEARNING CENTER INC,A CASTLE FOR CLASSY KIDS LEARNING CENTER INC,2570 PITKIN AVENUE,BROOKLYN,11208,347-750-8154,8171,5/24/2014,  Permitted,2 YEARS - 5 YEARS,39,No,Private,-73.877353,40.674384
A CHILDS PLACE PRE SCHOOL / A CHILDS PLACE TOO,A CHILDS PLACE TOOINC / A CHILDS PLACE NURSERY,32-20 108 ST,QUEENS,11369,718-565-2170,6966 / 7386,4/2/2016 / 3/25/2015,  Permitted /   Permitted,0 YEARS - 5 YEARS,150,No,Private,-73.861558,40.759308
A CHILDS PLACE TOO INC,A CHILDS PLACE TOO INC,100-10 ASTORIA BLVD,QUEENS,11369,718-446-0200,51781,9/10/2015,  Permitted,2 YEARS - 5 YEARS,45,No,Private,-73.868912,40.761481
A CHILDS HOME DAY CARE,GLORIA PANKY,427 NEW LOTS AVENUE,BROOKLYN,11207,718-927-0373,7395,1/7/2015,  Permitted,2 YEARS - 5 YEARS,24,No,Private,-73.891947,40.662582
A H R C  HOWARD HABER  ELC,N Y S ASSOCIATION FOR RETARDED CHILDRENINC,2300 WESTCHESTER AVENUE,BRONX,10462,718-409-1450,6030,3/17/2015,  Permitted,2 YEARS - 5 YEARS,152,Yes,Private,-73.847994,40.834998
A M A C CHILDRENS HOUSE,A M A C INC,25 WEST 17 STREET,MANHATTAN,10011,212-645-5005,5950,2/9/2015,  Permitted,2 YEARS - 5 YEARS,104,No,Private,-73.993424,40.738803
A NEW DAWN ELEMENTARY  PRE-SCHOOL,A NEW DAWN ELEMENTARY SCHOOLINC,89-14 163 STREET,QUEENS,11432,718-206-1500,6180,5/10/2014,  Permitted,2 YEARS - 5 YEARS,20,No,Private,-73.798176,40.706546
A TO Z CENTER TOO INC,A TO Z CENTER TOO INC,220-24 JAMAICA AVENUE,QUEENS,11428,718-740-8400,7605,6/21/2014,  Permitted,2 YEARS - 5 YEARS,162,No,Private,-73.733509,40.71903
A TO Z DAY CARE CENTER,A TO Z DAY CARE CENTER AND AFTER SCHOOL PROGRAM INCA TO Z DAY CARE CENTER INC,3053 AVENUE U,BROOKLYN,11229,718-368-1234,7960,12/5/2014,  Permitted,2 YEARS - 5 YEARS,54,No,Private,-73.936867,40.601167
A TO Z LEARNING CENTER,A TO Z MANAGEMENT INC,123-21 JAMAICA AVENUE,QUEENS,11418,718-805-4400,6709,10/11/2015,  Permitted,2 YEARS - 5 YEARS,29,No,Private,-73.826688,40.700953
A YOURE ADORABLE,A YOURE ADORABLEINC,3304 GRISWOLD AVENUE,BRONX,10465,718-863-3455,7137,6/9/2015,  Permitted,2 YEARS - 5 YEARS,47,No,Private,-73.816281,40.844624
ABC CASSIDYS PLACE,ASSOCIATION TO BENEFIT CHILDREN,419 EAST 86TH STREET,MANHATTAN,10028,212-831-1322,6390,8/6/2015,  Permitted,2 YEARS - 5 YEARS,120,Yes,Private,-73.948466,40.776743
ABC CHILD CENTER / ABC INFANT  TODDLER CENTER,ABC CHILD CENTERINC / ABC INFANT  TODDLER CENTERINC,109 NASSAU AVENUE,BROOKLYN,11222,718-389-9004,6084 / 43577,7/3/2014 / 6/13/2015,  Permitted /   Permitted,0 YEARS - 5 YEARS,76,No,Private,-73.949652,40.724384
ABC EARLY LEARNING CENTER,ABC EARLY LEARNING CENTER INC,54-25 LITTLE NECK PKWY,QUEENS,11362,718-225-8044,7216,3/31/2014,  Expired-InRenewal,2 YEARS - 5 YEARS,76,No,Private,-73.725353,40.766644
ABC EARLY LEARNING CENTER OF BAY TERRACE,ABC EARLY LEARNING CENTER INC,208-90 CROSS ISLAND PKWY,QUEENS,11360,718-428-0005,7866,4/9/2014,  Permitted,2 YEARS - 5 YEARS,36,No,Private,-73.784182,40.788751
ABC KEITH HARING SCHOOL,ASSOCIATION TO BENEFIT CHILDREN,318 EAST 116TH STREET,MANHATTAN,10029,212-426-3960,53757,11/1/2015,  Permitted,0 YEARS - 2 YEARS,10,No,Head Start Direct Fed Funding,-73.936949,40.796363
ABC KIDDIE LAND DAY CARE CENTER,ABC KIDDIE LAND INC,67-05  ROOSEVELT AVENUE,QUEENS,11377,718-651-3551,26898,11/7/2014,  Permitted,2 YEARS - 5 YEARS,26,No,Private,-73.897844,40.74635
ABC KIDDIELAND DAY CARE CENTER,ABC KIDDIELAND INC,65-21 ROOSEVELT AVE,QUEENS,11377,718-651-3551,7571,3/19/2016,  Permitted,2 YEARS - 5 YEARS,22,No,Private,-73.898299,40.746331
ABC MINISTRY AND COUNSELING CENTER,ABC MINISTRY AND COUNSELING CENTER INC / ABC MINISTRY AND COUSELING CENTERINC,9302  AVENUE B,BROOKLYN,11236,718-498-8937,7738 / 7708,4/19/2015 / 1/25/2015,  Permitted /   Permitted,0 YEARS - 5 YEARS,56,No,Private,-73.91382,40.650845
ABC PRESCHOOL,ABC PRE-SCHOOL  KINDERGARTEN CENTER CORP,66-20 LAUREL HILL BOULEVARD,QUEENS,11377,718-672-2424,2249,5/23/2015,  Permitted,2 YEARS - 5 YEARS,131,No,Private,-73.898048,40.739545
ABC PRESCHOOL  KINDERGARTEN CENTER,ABC PRESCHOOL  KINDERGARTEN CENTER CORP,66-26 LAUREL HILL BOULEVARD,QUEENS,11377,718-672-2424,2098,10/29/2014,  Permitted,2 YEARS - 5 YEARS,26,No,Private,-73.898048,40.739545
ABC VARIETY CODY GIFFORD HOUSE,ASSOCIATION TO BENEFIT CHILDREN,404 EAST 91ST STREET,MANHATTAN,10128,212-369-2010,7684,12/18/2015,  Permitted,0 YEARS - 2 YEARS,17,No,Private,-73.946721,40.779751
ABC VARIETY CODY GIFFORD HOUSE AT ST JOSEPHS,ASSOCIATION TO BENEFIT CHILDREN INC,420  EAST 87TH STREET,MANHATTAN,10128,212-369-2010,45718,6/28/2015,  Permitted,0 YEARS - 2 YEARS,17,No,Private,-73.948411,40.777085
ABYSSINIAN HEAD START - ADAM CLAYTON POWELL JR CENTER,ABYSSINIAN DEVELOPMENT CORP,25 WEST 132ND STREET,MANHATTAN,10037,212-234-9252,7949,10/15/2014,  Permitted,2 YEARS - 5 YEARS,45,No,ACS Head Start,-73.939592,40.811619
ABYSSINIAN HEAD START- ANNIE G NEWSOME CENTER,ABYSSINIAN DEVELOPMENT CORPORATION,129 WEST 138 STREET,MANHATTAN,10030,212-690-2869,6124,7/30/2014,  Permitted,2 YEARS - 5 YEARS,54,No,ACS Head Start,-73.940992,40.816922
ABYSSINIAN/ANNIE G NEWSOME  HEAD START I I,ABYSSINIAN DEVELOPMENT CORP,646 LENOX AVENUE,MANHATTAN,10037,212-991-3930,7759,5/14/2013,  Expired-InRenewal,2 YEARS - 5 YEARS,28,No,ACS Head Start,-73.936753,40.818719
ACADEMICS  R US LTD,ACADEMICS R US LTD,1339 EAST GUNHILL ROAD,BRONX,10469,718-324-8720,7047,12/19/2014,  Permitted,2 YEARS - 5 YEARS,75,No,Private,-73.846728,40.871027
ACADEMY OF EXCELLENCE BELL PARK,BELL PARK CHILD CARE CENTER INC,178-36 WEXFORD  TERRACE,QUEENS,11432,212-931-4724,39657,5/9/2015,  Permitted,2 YEARS - 5 YEARS,103,No,Private,-73.784287,40.713302
ACADEMY OF LEARNING,GNK NY INC,1334 EAST GUNHILL ROAD,BRONX,10469,718-405-2888,7950,10/31/2014,  Permitted,2 YEARS - 5 YEARS,15,No,Private,-73.847207,40.870693
ACE EARLY CHILDHOOD CENTER,12TH STREET PRESCHOOLINC,199 14 STREET,BROOKLYN,11215,718-788-2668,5307,10/21/2015,  Permitted,2 YEARS - 5 YEARS,55,No,ACS Contracted Preschools,-73.990394,40.667158
ACS,SOUTH JAMAICA CENTER FOR CHILDREN  PARENTS INC,114-02 GUY R BREWER BOULEVARD,QUEENS,11434,718-526-2500,5219,12/24/2015,  Permitted,2 YEARS - 5 YEARS,57,Yes,ACS Head Start,-73.785836,40.688502
ACS,THE CHILD CENTER OF NEW YORK,34-10 108TH STREET,QUEENS,11368,347-287-0175,8033,6/27/2015,  Permitted,2 YEARS - 5 YEARS,162,Yes,ACS Contracted Preschools,-73.860889,40.755859
ACT PROGRAM AT THE CATHEDRAL OF ST JOHN THE DIVINE,CATHEDRAL OF ST JOHN THE DIVINE,1047 AMSTERDAM AVENUE,MANHATTAN,10025,212-316-7530,7157,7/18/2015,  Permitted,2 YEARS - 5 YEARS,22,No,Private,-73.961747,40.803767
ACTION FOR PROGRESS CHILD CARE CENTER / ESCUELA HISPANA  MONTESSORI,ACTION FOR PROGRESSINC / ESCUELA HISPANA MONTESSORI,180 SUFFOLK STREET,MANHATTAN,10002,212-475-4340 / 212-982-6650,8172 / 8173,5/24/2014 / 5/25/2014,  Permitted /   Permitted,2 YEARS - 5 YEARS,251,No,ACS Contracted Preschools / ACS Head Start,-73.98452,40.721174
ACTION NURSERY,ACTION NURSERY INC,1019 46 STREET,BROOKLYN,11219,718-854-7777,4022,3/11/2015,  Permitted,2 YEARS - 5 YEARS,30,No,ACS Contracted Preschools,-73.996264,40.640495
ADAPTIVE SOLUTIONS MULTI SERVICES SLP PT OT PSYCH / GOOD SAMARITAN FULTON DAY CARE CENTER - INFANT/TODDLER / GOOD SAMARITAN FULTON DAY CARE CENTER-PRESCHOOL / THE JOY OF LEARNING DAY CARE CENTER,ADAPTIVE SOLUTIONS MULTI SERVICESSLPPTOTPSYCH PLLC / GOOD SAMARITAN FULTON DAY CARE CENTER INC / GOOD SAMARITAN FULTON DAY CARE CENTER INC / JOY OF LEARNING CHILD DEVELOPMENT CORP,992 GATES AVENUE,BROOKLYN,11221,718-483-9553 / 718-443-6463 / 718-443-6463 / 718-443-6463,16597 / 6199 / 6198 / 8016,5/16/2014 / 6/26/2015 / 6/27/2014 / 6/1/2015,  Permitted /   Permitted /   Permitted /   Permitted,0 YEARS - 5 YEARS,273,No,Private,-73.92368,40.688969
ADDIE MAE COLLINS,ADDIE MAE COLLINS COMMUNITY SERVICE III,2322 THIRD AVE,MANHATTAN,10035,212-831-3144,24778,10/12/2014,  Permitted,2 YEARS - 5 YEARS,155,No,ACS Contracted Preschools,-73.935496,40.804885
ADDIE MAE COLLINS COMMUNITY SERVICE HEAD START,ADDIE MAE COLLINS COMMUNITY SERVICES INC,345 EAST 101 STREET,MANHATTAN,10029,212-831-7373,6148,5/9/2014,  Permitted,2 YEARS - 5 YEARS,30,No,ACS Head Start,-73.942856,40.786867
ADDIE MAE COLLINS HEAD START 1,ADDIE MAE COLLINS COMMUNITY SERVICE INC,110 EAST 129 STREET,MANHATTAN,10035,212-831-9220,4501,3/16/2015,  Permitted,2 YEARS - 5 YEARS,40,No,ACS Head Start,-73.936847,40.806897
ADVENTURELAND CHILD CARE / ADVENTURELAND INFANT TODDLER,ADVENTURELAND CHILD CARE / ADVENTURELAND INFANT TODDLER,32-04 31ST AVENUE,QUEENS,11106,718-777-2011,7969 / 7968,12/3/2014 / 12/3/2014,  Permitted /   Permitted,0 YEARS - 5 YEARS,117,No,Private,-73.922644,40.763644
ADVENTURELAND CHILD CARE CENTER INC PRESCHOOL / ADVENTURELAND INFANT CARE / BRIGHT BEGINNINGS,ADVENTURELAND CHILD CARE INC / ADVENTURELAND INFANT CARE / BRITE ADVENTURE CENTERINC,41-31 58 STREET,QUEENS,11377,718-274-4769,7176 / 7394 / 7262,7/1/2015 / 3/23/2015 / 3/31/2016,  Permitted /   Permitted /   Permitted,0 YEARS - 5 YEARS,75,No,Private,-73.906749,40.743717
AFRO-AMERICAN PARENTS EDUCATIONAL CENTER  4,AFRO-AMERICAN PARENTS EDUCATIONAL CENTER  4,108-17  159TH STREET,QUEENS,11433,718-526-1506,8352,7/1/2015,  Permitted,2 YEARS - 5 YEARS,60,No,ACS Contracted Preschools,-73.793574,40.69502
AFRO-AMERICAN PARENTS EDUCATIONAL CENTER INC,AFRO-AMERICAN PARENTS DAY CARE CENTER INC,112-06 SUTPHIN BOULEVARD,QUEENS,11435,718-322-9080,4789,7/16/2014,  Permitted,2 YEARS - 5 YEARS,91,No,ACS Contracted Preschools,-73.794889,40.687118
AGAPE NURSERY SCHOOL,KOREAN PRESBYTERIAN CHURCH OF QUEENS INC,143-17 FRANKLIN AVENUE,QUEENS,11355,718-886-3564,6163,5/3/2014,  Permitted,2 YEARS - 5 YEARS,67,No,Private,-73.821752,40.757756
AHRC FRANCIS OF PAOLA EARLY LEARNING CENTER,ASSOCIATION FOR THE HELP OF RETARDED CHILDREN INC,195-201 CONSELYEA STREET,BROOKLYN,11211,718-782-1462,5687,9/27/2014,  Permitted,2 YEARS - 5 YEARS,193,No,Private,-73.943433,40.715533
AILEEN CLAVANO,DISCOVERY LANE,27-17 27 STREET,QUEENS,11102,718-440-6919,8365,7/8/2015,  Permitted,2 YEARS - 5 YEARS,29,No,Private,-73.923113,40.76926
AIM HIGH CHILDRENS SERVICES,AIM HIGH CHILDRENS SERVICES,229 PARKVILLE AVENUE,BROOKLYN,11230,718-438-7000,7856,5/11/2014,  Permitted,2 YEARS - 5 YEARS,15,No,Private,-73.970554,40.631507
ALEENE LOGAN PRESCHOOL CENTER,CLAREMONT NEIGHBORHOOD CENTER INC,1450 WEBSTER AVENUE,BRONX,10456,718-293-1530,4170,11/2/2015,  Permitted,2 YEARS - 5 YEARS,55,No,ACS Contracted Preschools,-73.905917,40.83785
ALEPH BET NY INC,ALEPH BET NY INC,133 EAST 29TH STREET,MANHATTAN,10016,212-685-0241,28419,12/3/2014,  Permitted,2 YEARS - 5 YEARS,20,No,Private,-73.981416,40.743215
ALL CHILDRENS CHILD CARE,ALL CHILDRENS CHILD CARE,32-04  31 AVENUE,QUEENS,11106,718-777-2011,7970,12/3/2014,  Permitted,2 YEARS - 5 YEARS,54,No,Private,-73.922644,40.763644
ALL CHILDRENS CHILDCARE INFANT/TODDLER / ALL CHILDRENS CHILDCARE PRESCHOOL,ALL CHILDREN CHILDCARE CENTER OF QUEENS INC,35-01 24 STREET,QUEENS,11106,718-707-0501,6856 / 6855,5/27/2015 / 5/26/2015,  Permitted /   Permitted,0 YEARS - 5 YEARS,101,No,Private,-73.932802,40.759943
ALL MY CHILDREN CARE INC NURSERY,ALL MY CHILDREN DAY CARE INC NURSERY,169-07 JEWEL AVENUE,QUEENS,11365,718-658-1563,6094,8/26/2015,  Permitted,2 YEARS - 5 YEARS,29,No,ACS Contracted Preschools,-73.799915,40.731721
ALL MY CHILDREN DAY CARE,ALL MY CHILDREN DAY CARE AND NURSERY SCHOOL INC,110-15 164 PLACE,QUEENS,11433,718-526-5911,25917,10/22/2014,  Permitted,2 YEARS - 5 YEARS,105,No,ACS Contracted Preschools,-73.786672,40.69375
ALL MY CHILDREN DAY CARE,ALL MY CHILDREN DAY CARE  NURSERY SCHOOL INC,117-16 SUTPHIN BLVD,QUEENS,11434,718-322-2030,25997,10/23/2014,  Permitted,2 YEARS - 5 YEARS,99,No,ACS Contracted Preschools,-73.792381,40.679896
ALL MY CHILDREN DAY CARE / ALL MY CHILDREN DAY CARE  NURSERY SCHOOL,ALL MY CHILDREN DAY CAREINC / ALL MY CHILDREN DAY CARE  NURSERY SCHOOL,175-44 MAYFIELD ROAD,QUEENS,11432,718-658-1563,6598 / 6190,12/1/2014 / 5/17/2014,  Permitted /   Permitted,0 YEARS - 5 YEARS,85,No,Private,-73.789363,40.71676
ALL MY CHILDREN DAY CARE  NURSERY SCHOOL,ALL MY CHILDREN DAY CARE AND NURSERY SCHOOL,420 LEFFERTS AVENUE,BROOKLYN,11225,718-756-2020,25377,10/17/2014,  Permitted,2 YEARS - 5 YEARS,198,No,ACS Contracted Preschools,-73.94728,40.662344
ALL MY CHILDREN DAY CARE  NURSERY SCHOOL / ALL MY CHILDREN DAY CARE AND NURSERY SCHOOL,ALL MY CHILDREN DAY CARE  NURSERY SCHOOL / ALL MY CHILDREN DAY CARE AND NURSERY SCHOOL,771 CROWN STREET,BROOKLYN,11213,718-756-8300,25957 / 28679,10/23/2014 / 12/6/2014,  Permitted /   Permitted,0 YEARS - 5 YEARS,69,No,ACS Contracted Preschools,-73.932,40.665496
ALL MY CHILDREN DAY CARE  NURSERY SCHOOL,ALL MY CHILDREN DAY CARE  NURSERY INC,83-10 188 STREET,QUEENS,11423,718-454-5600,25177,10/16/2014,  Permitted,2 YEARS - 5 YEARS,58,No,ACS Contracted Preschools,-73.779176,40.724494
ALL MY CHILDREN DAY CARE NURSERY SCHOOL INC,ALL MY CHILDREN DAY CARE  NURSERY SCHOOL INC,66-05 108 STREET,QUEENS,11375,718-592-8981,27238,11/14/2014,  Permitted,2 YEARS - 5 YEARS,24,No,ACS Contracted Preschools,-73.847842,40.730163
ALL MY CHILDREN DAY CARE 11,ALL MY CHILDREN DAY CARE AND NURSERY SCHOOL,317 ROGERS AVENUE,BROOKLYN,11225,718-771-8075,24878,10/12/2014,  Permitted,2 YEARS - 5 YEARS,90,No,ACS Contracted Preschools,-73.953369,40.665664
ALL MY CHILDREN DAY CARE AND NURSERY,ALL MY CHILDREN DAY CARE AND NURSERY SCHOOL INC,36-49 11 STREET,QUEENS,11106,718-786-1166,26618,10/26/2014,  Permitted,2 YEARS - 5 YEARS,115,No,ACS Contracted Preschools,-73.940405,40.759884
ALL MY CHILDREN DAY CARE AND NURSERY SCHOOL,ALL MY CHILDREN DAY CARE AND NURSERY SCHOOL,36 FORD STREET,BROOKLYN,11213,718-576-6812,24658 / 25417,10/12/2014 / 10/17/2014,  Permitted /   Permitted,0 YEARS - 5 YEARS,186,No,ACS Contracted Preschools,-73.929465,40.66451
ALL MY CHILDREN DAY CARE AND NURSEY SCHOOL,ALL MY CHILDREN DAY CARE AND NURSERY SCHOOL,739 EAST NEW YORK AVENUE,BROOKLYN,11203,718-493-1100,27477,11/16/2014,  Permitted,2 YEARS - 5 YEARS,60,No,ACS Contracted Preschools,-73.938015,40.662574
ALL MY CHILDREN DAY CARE NURSERY SCHOOL III,ALL MY CHILDREN DAY CARE NURSERY SCHOOL III,108-22 69 AVENUE,QUEENS,11375,718-544-0007,7425,7/25/2015,  Permitted,2 YEARS - 5 YEARS,43,No,Private,-73.844414,40.724941
ALL SEASONS A  C DAY CARE,ALL SEASONS A  C DAY CARE LLC,700 ROSEWOOD STREET,BRONX,10467,718-231-7200,24119 / 24139,10/5/2014 / 10/5/2014,  Permitted /   Permitted,0 YEARS - 5 YEARS,43,No,Private,-73.866498,40.872814
ALL SEASONS DAY CARE / ALL SEASONS DAY NURSERY INFANT/TODDLER,ALL SEASONS DAY CARE LLC,1701 NEREID AVENUE,BRONX,10466,718-324-8300,7237 / 7458,5/5/2014 / 11/6/2014,  Permitted /   Permitted,0 YEARS - 5 YEARS,45,No,Private,-73.852176,40.898074
ALL SOULS SCHOOL,ALL SOULS SCHOOL,1157 LEXINGTON AVENUE,MANHATTAN,10075,212-861-5232,2014,4/26/2015,  Permitted,2 YEARS - 5 YEARS,110,No,Private,-73.958193,40.775326
ALL STARS DAY CARE,ALL STARS DAYCARE GROUP INC,4111 AVENUE J,BROOKLYN,11210,917-933-4747,56497,2/3/2016,  Permitted,2 YEARS - 5 YEARS,28,No,Private,-73.936071,40.627864
ALPHA FUNDEMENTAL PRESCHOOL INC,ALPHA FUNDAMENTAL  2,218-28 HEMPSTEAD AVENUE,QUEENS,11429,718-740-1010,7541,12/21/2015,  Permitted,2 YEARS - 5 YEARS,20,No,Private,-73.73715,40.713469
ALPHA KAPPA ALPHA SORORITY DAY CARE CENTER INC,ALPHA KAPPA ALPHA SORORITY DAY CARE CENTER INC,144-06 ROCKAWAY BOULEVARD,QUEENS,11436,718-322-6242,5005,12/21/2013,  Expired-InRenewal,2 YEARS - 5 YEARS,95,No,ACS Contracted Preschools,-73.79447,40.673464
ALPHAFUNDAMENTAL PRESCHOOLINC,ALPHA-FUNDAMENTAL PRE-SCHOOL INC,218-30 HEMPSTEAD AVENUE,QUEENS,11429,718-740-1010,6119,9/21/2015,  Permitted,2 YEARS - 5 YEARS,30,No,Private,-73.737091,40.713436
ALWAYZ 123 EARLY LEARNING CENTER INC,ALWAYZ 123 EARLY LEARNING CENTER INC PS / ALWAYZ 123 EARLY LEARNING CENTER INC I/T,80 BAY STREET,STATEN ISLAND,10301,718-815-4701,49197 / 49177,7/31/2015 / 7/26/2015,  Permitted /   Permitted,0 YEARS - 5 YEARS,32,No,Private,-74.075844,40.639995
AMAC,ASSOCIATION FOR METROAREA AUTISTIC CHILDREN INC,25 WEST 17TH STREET,MANHATTAN,10011,212-645-5005,19617,7/30/2014,  Permitted,0 YEARS - 2 YEARS,10,No,Private,-73.993424,40.738803
AMALGAMATED NURSERY SCHOOL,AMALGAMATED NURSERY SCHOOL,3980 ORLOFF AVENUE,BRONX,10463,718-543-8688,7169,11/9/2015,  Permitted,2 YEARS - 5 YEARS,56,No,Private,-73.891957,40.884098
AMAZING MAGIC BEANS,AMAZING CHILD CARE INC,43-12 46TH ST,QUEENS,11104,718-786-8091,7933,9/7/2014,  Permitted,2 YEARS - 5 YEARS,50,No,Private,-73.918703,40.744486
AMBASSADOR CHRISTIAN DAY CARE ACADEMY,LEONIA GIPSON,993 CLARKSON AVENUE,BROOKLYN,11212,718-809-0233,32579,2/14/2015,  Permitted,2 YEARS - 5 YEARS,21,No,Private,-73.925092,40.658148
AMERICAN EUROPEAN CHILD CARE / AMERICAN-EUROPEAN CHILD CARE DAY CARE CENTER,EUROPEAN CHILD CARE DAY CARE CENTER INC,2150 BENSON AVENUE,BROOKLYN,11214,718-265-4477,6191 / 5938,8/15/2015 / 10/23/2014,  Permitted /   Permitted,0 YEARS - 5 YEARS,31,No,Private,-73.996271,40.600428
AMYS ACADEMY,AMYS KIDDIE DAY CARE CENTER LLC,102 FENIMORE STREET,BROOKLYN,11225,718-462-3200,7955,11/26/2014,  Permitted,2 YEARS - 5 YEARS,36,No,Private,-73.958782,40.657971
ANGEL STAR DAY CARE CENTER,ANGEL STAR DAY CARE CENTER INC,6803 20 AVENUE,BROOKLYN,11204,718-331-7282,7501,1/1/2015,  Permitted,2 YEARS - 5 YEARS,19,No,Private,-73.987594,40.614547
ANGELS IN THE GARDENS CHILD CARE CORP,ANGELS IN THE GARDENS CHILD CARE CORP,72-32 GREENWAY SOUTH,QUEENS,11375,718-997-0990,8288,4/18/2015,  Permitted,2 YEARS - 5 YEARS,25,No,Private,-73.844692,40.713993
ANNA LEFKOWITZ DAY CARE CENTER,PHILIP MICHAELS CHILD CARE CENTER INC,690 WESTCHESTER AVENUE,BRONX,10455,718-292-8682,23437,9/28/2014,  Permitted,2 YEARS - 5 YEARS,55,No,ACS Contracted Preschools,-73.906723,40.81658
ANTIOCH  ACADEMY,ANTIOCH BAPTIST CHURCH,515 WEST 125 STREET,MANHATTAN,10027,212-222-2324,5247,9/30/2014,  Permitted,2 YEARS - 5 YEARS,30,No,Private,-73.956533,40.81417
APPLE TREE DAY CARE,APPLE TREE DAYCARE AC INC,440 EAST 48TH STREET,BROOKLYN,11203,718-287-7488,44957,6/25/2015,  Permitted,2 YEARS - 5 YEARS,55,No,Private,-73.932537,40.651011
APPLE TREE DAY CARE CENTER / APPLE TREE TODDLER CENTER,APPLETREE DAY CARE CENTER INC / APPLETREE TODDLER CENTER INC,73-20 BELL BLVD,QUEENS,11364,718-264-1588,8241 / 8238,2/28/2015 / 2/8/2015,  Permitted /   Permitted,0 YEARS - 5 YEARS,79,No,Private,-73.758225,40.739919
ARCADIA CHILDRENS  DAYCARE,SHARBANI ROY INC,2195 GRAND CONCOURSE,BRONX,10453,718-561-8062,7703,1/5/2015,  Permitted,2 YEARS - 5 YEARS,62,Yes,Private,-73.901389,40.855948
ARISTA PREPARATORY  NURSERY  ACADEMY PS / ARISTA PREPARATORY NURSERY  ACADEMY  I/T,ARISTA PREPARATORY INC,275 KINGSTON AVENUE,BROOKLYN,11213,718-493-9290,10017 / 10018,12/15/2015 / 12/15/2015,  Permitted /   Permitted,0 YEARS - 5 YEARS,90,No,Private,-73.941849,40.670219
ASPIRING STARS DAY CARE CENTER LLC,ASPIRING STARS DAY CARE CENTER LLC,156 GATES  AVENUE,BROOKLYN,11238,718-399-2339,8162,5/18/2014,  Permitted,2 YEARS - 5 YEARS,15,No,Private,-73.961242,40.684702
ASSOCIATED BETH RIVKAH SCHOOLS / ASSOCIATED BETH RIVKAH SCHOOLS HEAD START,ASSOCIATED BETH RIVKAH SCHOOLS INC / ASSOCIATED BETH RIVKAH SCHOOL FOR GIRLS,470 LEFFERTS AVENUE,BROOKLYN,11225,718-735-0770,7382 / 7957,3/20/2015 / 12/2/2014,  Permitted /   Permitted,2 YEARS - 5 YEARS,260,No,ACS Head Start / Head Start Direct Fed Funding,-73.945925,40.662243
ASTOR SERVICES FOR CHILDREN AND FAMILIES / LAWRENCE F HICKEY CENTER,ASTOR SERVICES FOR CHILDREN AND FAMILIES,4010 DYRE AVENUE,BRONX,10466,718-515-3000,5927,7/18/2015,  Permitted,2 YEARS - 5 YEARS,40,No,Private,-73.83073,40.890946
ASTORIA BLUE FEATHER HEAD START,NYSARC INC NYC CHAPTER,27-07 8 STREET,QUEENS,11102,718-721-3960,5221,6/18/2014,  Permitted,2 YEARS - 5 YEARS,83,Yes,Private,-73.931815,40.773566
ATLANTIC AVENUE EARLY LEARNING CENTER,BROOKLYN BUREAU OF COMMUNITY SERVICE,1825 ATLANTIC  AVENUE,BROOKLYN,11233,347-296-4980,8169 / 8170,5/28/2014 / 5/28/2014,  Permitted /   Permitted,0 YEARS - 5 YEARS,63,No,Head Start Direct Fed Funding,-73.925775,40.677451
ATONEMENT PRE-SCHOOL,THE EVANGELICAL LUTHERAN CHURCH OF THE ATONEMENT,87-07 31 AVENUE,QUEENS,11369,718-639-6074,6977,4/5/2014,  Permitted,2 YEARS - 5 YEARS,40,No,Private,-73.881253,40.76
AUDITORY/ORAL SCHOOL OF NY/ STRIVRIGHT,THE AUDITORY/ORAL LEARNING CENTER INC,3321 AVENUE M,BROOKLYN,11210,718-531-1800,8357,8/4/2015,  Permitted,2 YEARS - 5 YEARS,193,No,Private,-73.942046,40.620241
AUDREY JOHNSON LEARNING CENTER,LABOR  INDUSTRY FOR EDUCATION INC,272 MOFFAT STREET,BROOKLYN,11207,718-574-0130,27578,11/20/2014,  Permitted,2 YEARS - 5 YEARS,115,No,ACS Contracted Preschools,-73.904007,40.689671
AUGUSTANA EVANGELICAL LUTHERAN CHURCH,AUGUSTANA LUTHERAN PRE-SCHOOL,69-05 DITMARS BOULEVARD,QUEENS,11370,718-626-5957,6511,10/21/2013,  Expired-InRenewal,2 YEARS - 5 YEARS,20,No,Private,-73.899163,40.768399
AVAS LITTLE ACHIEVERS INC,AVAS LITTLE ACHIEVERS INC,1743 LINDEN BLVD,BROOKLYN,11207,347-318-3623,33340,2/26/2015,  Permitted,2 YEARS - 5 YEARS,25,No,Private,-73.898194,40.657847
AVALON ACADEMY PARK SLOPE INFANT/TODDLER,AVALON CHILDCARE PARK SLOPE INC,204 15 STREET,BROOKLYN,11215,718-768-4300,7151,3/14/2015,  Permitted,0 YEARS - 2 YEARS,34,No,Private,-73.9899,40.665625
AVALON CHILD CARE OF RED HOOK INC,AVALON CHILD CARE OF RED HOOK INC,48 SULLIVAN STREET,BROOKLYN,11231,718-855-4655,7989,2/28/2013,  Expired-InRenewal,0 YEARS - 2 YEARS,47,No,Private,-74.010778,40.677088
AVALON CHILDCARE FIFTH AVENUE / AVALON FIFTH AVENUE TODDLER PROGRAMINC,AVALON CHILDCARE FIFTH AVENUE INC / AVALON FIFTH AVENUE TODDLER PROGRAMINC,552 5 AVENUE,BROOKLYN,11215,718-768-4300,7618 / 7898,6/30/2014 / 6/30/2014,  Permitted /   Permitted,2 YEARS - 5 YEARS,58,No,Private,-73.989671,40.665579
AVENUE B CHRISTIAN ACADEMY,AVENUE B CHRISTIAN CENTER INC,9214 AVENUE B,BROOKLYN,11236,718-498-9464,5993,1/21/2015,  Permitted,2 YEARS - 5 YEARS,23,No,Private,-73.914211,40.65059
AWESOME BUNNIES CHILDCARE CENTER / NEW YORK UNITED DAY CARE,NEW YORK UNITED DAY CAREINC / NEW YORK UNITED DAY CARE INC,349 KEAP STREET,BROOKLYN,11211,718-302-4400,42519 / 29318,6/5/2015 / 12/14/2014,  Permitted /   Permitted,0 YEARS - 5 YEARS,55,No,Private,-73.954772,40.709242
B  ABOVE EARLY LEARNING CENTER,BABOVE WORLDWIDE INSTITUTE INC,1810 DAVIDSON AVENUE,BRONX,10453,718-466-7509,23517,9/28/2014,  Permitted,2 YEARS - 5 YEARS,127,Yes,ACS Contracted Preschools,-73.911914,40.849574
BABOVE WORKWIDE INSTITUTE /NEW HYDE PARK,BABOVE WORLDWIDE INSTITUTE INC,771-779 EAST 49TH STREET,BROOKLYN,11203,718-451-1126,27737,11/21/2014,  Permitted,2 YEARS - 5 YEARS,176,Yes,ACS Contracted Preschools,-73.930176,40.642744
BABOVE WORLD WIDE HEAD START,BABOVE WORLD WIDE INSTITUTE,60-05 WOODHAVEN BLVD,QUEENS,11373,718-805-2252,7963,10/28/2014,  Permitted,2 YEARS - 5 YEARS,138,No,ACS Head Start,-73.871232,40.731236
BABOVE WORLDWIDE INSTITUTE / KRULA,BABOVE WORLD WIDE INSTITUTE INC,799 KENT  AVENUE,BROOKLYN,11205,347-943-6353,29317,12/14/2014,  Permitted,2 YEARS - 5 YEARS,98,Yes,ACS Contracted Preschools,-73.959674,40.69696
BABY GENIUS DAY CARE CENTER,BABY GENIUS DAY CARE CENTERINC,2082 UTICA AVENUE,BROOKLYN,11234,347-312-5277,8008,3/20/2015,  Permitted,2 YEARS - 5 YEARS,40,No,Private,-73.927401,40.620923
BABY STEPS,BABY STEPS DAY CARE INC,99-06 METROPOLITAN AVENUE,QUEENS,11375,718-451-6094,20517,8/8/2014,  Permitted,2 YEARS - 5 YEARS,26,No,Private,-73.853482,40.710691
BAIS FRIEDA CHILD CARE,BAIS FRIEDA CHILD CARE CENTER INC,1326 EAST 10TH STREET,BROOKLYN,11230,845-596-2271,28638,12/5/2014,  Permitted,2 YEARS - 5 YEARS,54,No,Private,-73.964919,40.616772
BAIS YAAKOV FAIGEH SCHONBERGER OF ADAS YEREIM / SHIRA HEAD START BAIS YAAKOV ADAS YEREIM,BAIS YAAKOV FAIGEH SCHONBERGER OF ADAS YEREIM / SHIRA ASSOCIATION INC,1169 43RD STREET,BROOKLYN,11219,718-435-5111 / 718-435-7700,8262 / 40417 / 8120,1/24/2015 / 5/16/2015 / 1/13/2016,  Permitted /   Permitted /   Permitted,0 YEARS - 5 YEARS,105,No,Head Start Direct Fed Funding,-73.991268,40.640279
BAM BAMS PLAYHOUSE / BAM BAMS PLAYHOUSE INFANT/TODDLER,BAM BAMS PLAYHOUSE INC / BAM BAMS PLAYHOUSEINC,714 BANNER AVENUE,BROOKLYN,11235,718-332-3974,23217 / 8320,9/26/2014 / 6/10/2015,  Permitted /   Permitted,0 YEARS - 5 YEARS,35,No,Private,-73.96078,40.583184
BAMBI CHILD CARE INFANTS/ YOUNG TODDLERS / BAMBI CHILD CARE PRESCHOOL / ONE WORLD PROJECT,BAMBI CHILD CARE 2 INC / JOANNE DERWIN,1218 PROSPECT AVENUE,BROOKLYN,11218,718-499-3299 / 718-499-2299 / 718-407-6377,13878 / 13877 / 51658,3/22/2014 / 3/22/2014 / 9/6/2015,  Expired-InRenewal /   Expired-InRenewal /   Permitted,0 YEARS - 5 YEARS,74,No,Private,-73.976523,40.653224
BAMBI DAY CARE CENTER INC,BAMBI DAY CARE CENTER INC,138 HANCOCK STREET,BROOKLYN,11216,718-230-3487,7600,12/12/2015,  Permitted,2 YEARS - 5 YEARS,35,No,Private,-73.950341,40.682279
BAMBI DAY CARE INC,BAMBI DAY CARE INC,300 ROGERS AVENUE,BROOKLYN,11225,718-771-1603,4879,1/17/2016,  Permitted,2 YEARS - 5 YEARS,75,No,Private,-73.953897,40.666081
BANK STREET COLLEGE FAMILY CENTER / BANK STREET FAMILY CENTER,BANK STREET COLLEGE FAMILY CENTER / BANK STREET COLLEGE OF EDUCATION,610 WEST 112 STREET,MANHATTAN,10025,212-875-4414 / 212-875-4412,5728 / 5798,10/31/2014 / 6/30/2015,  Permitted /   Permitted,0 YEARS - 5 YEARS,51,Yes,Private,-73.966675,40.805563
BANK STREET HEAD START,BANK STREET COLLEGE OF EDUCATION,113 EAST 13 STREET,MANHATTAN,10003,212-353-2532,7401,2/17/2015,  Permitted,2 YEARS - 5 YEARS,79,Yes,Head Start Direct Fed Funding,-73.988976,40.733379
BARNARD COLLEGE CENTER FOR TODDLER  DEVELOPMENT,BARNARD COLLEGE,3009 BROADWAY,MANHATTAN,10027,212-854-8271,5797,12/3/2015,  Permitted,0 YEARS - 2 YEARS,13,No,Private,-73.963942,40.809144
BARNEY DAY CARE CENTER INC,BARNEY DAY CARE CENTER INC,472 NETHERLAND AVENUE,STATEN ISLAND,10303,718-477-5262,7847,11/20/2015,  Permitted,2 YEARS - 5 YEARS,23,No,Private,-74.165178,40.628785
BARROW STREET NURSERY SCHOOL AT THE GREENWICH HOUSE INC,BARROW STREET NURSERY SCHOOL  GREENWICH HOUSE,27 BARROW STREET,MANHATTAN,10014,212-633-1203,4963,10/26/2014,  Permitted,2 YEARS - 5 YEARS,76,Yes,Private,-74.00309,40.732326
BARUCH COLLEGE EARLY LEARNING CENTER,BARUCH COLLEGE EARLY LEARNING CENTER,104 EAST 19 STREET,MANHATTAN,10003,212-387-1420,5325,11/13/2013,  Expired-InRenewal,2 YEARS - 5 YEARS,30,Yes,Private,-73.987896,40.737128
BASIC TRUST,MILLER DAY CARE CENTERINC / MILLER DAY CARE CENTER INC,225 WEST 99 STREET,MANHATTAN,10025,212-222-6602,6420 / 6409,6/18/2015 / 9/14/2015,  Permitted /   Permitted,0 YEARS - 5 YEARS,38,No,Private,-73.969289,40.79654
BATTERY PARK CITY DAY NURSERY,BATTERY PARK CITY DAY NURSERY INC / BATTERY PARK CITY DAY NURSERYINC,215 SOUTH END AVENUE,MANHATTAN,10280,212-945-0088,5233 / 5249,7/3/2015 / 6/4/2014,  Permitted /   Permitted,0 YEARS - 5 YEARS,104,No,Private,-74.017209,40.709626
BATTERY PARK MONTESSORI,GREEN IVY HOLDINGS LLC,21 SOUTH END AVENUE,MANHATTAN,10280,212-913-9704,56257,1/24/2016,  Permitted,2 YEARS - 5 YEARS,56,Yes,Private,-74.018362,40.708291
BAY RIDGE AVE CHILD CARE CENTER I/T / BAY RIDGE AVE CHILD CARE CENTER -P/S,BAY RIDGE AVE CHILD CARE CENTER INC,1206 BAY RIDGE AVENUE,BROOKLYN,11219,718-680-3544,6654 / 6655,3/2/2015 / 3/2/2015,  Permitted /   Permitted,0 YEARS - 5 YEARS,21,No,Private,-74.005971,40.624757
BAY RIDGE CHILD CARE CENTER,COLONY SOUTH BROOKLYN HOUSES INC,314  44TH  STREET,BROOKLYN,11220,718-768-5030,7623,7/28/2014,  Permitted,2 YEARS - 5 YEARS,40,No,Private,-74.010959,40.650726
BAY RIDGE MONTESSORI SCHOOL,ARLENE P MARKINSON,6301 12 AVENUE,BROOKLYN,11219,718-259-8701,5016,11/12/2015,  Permitted,2 YEARS - 5 YEARS,30,No,Private,-74.002364,40.627942
BAY RIDGE PLAY PLACE,DAYCARE AMERICA INC,345 91 STREET,BROOKLYN,11209,718-921-3959,5660,7/5/2015,  Permitted,2 YEARS - 5 YEARS,45,No,Private,-74.030983,40.619927
BAY RIDGE PLAY PLACE - INFANT/TODDLER,DAYCARE AMERICA INC,347 91ST STREET,BROOKLYN,11209,718-921-3959,5658,6/29/2015,  Permitted,0 YEARS - 2 YEARS,21,No,Private,-74.030868,40.619872
BAYBEE LOUNGE,BAYBEE LOUNGE DAYCARE CORP,182 HENDRIX ST,BROOKLYN,11207,718-513-0179,12197,2/7/2016,  Permitted,0 YEARS - 2 YEARS,18,No,Private,-73.890991,40.677945
BAYBEE LOUNGE DAYCARE,BAYBEE LOUNGE DAYCARE CORP,2745 ATLANTIC AVENUE,BROOKLYN,11207,646-541-7744,8398,9/28/2015,  Permitted,2 YEARS - 5 YEARS,25,No,Private,-73.892995,40.676456
BAYRIDGE CHILD CARE CENTER,COLONY SOUTH BROOKLYN HOUSES INC,322 44TH STREET,BROOKLYN,11220,718-768-5030,55139,12/13/2015,  Permitted,2 YEARS - 5 YEARS,24,No,Private,-74.010844,40.650617
BCA EARLY CHILDHOOD EDUCATION CENTER  7,BROOKLYN CHINESE-AMERICAN ASSOCIATION,4202 8TH  AVENUE,BROOKLYN,11232,718-438-0008,55337,12/18/2015,  Permitted,2 YEARS - 5 YEARS,132,No,Private,-73.999336,40.64563
BCA EARLY CHILDHOOD EDUCATION CENTER 3,BROOKLYN CHINESE AMERICAN ASSOCIATION,713 43RD STREET,BROOKLYN,11232,718-851-0869,24497,10/10/2014,  Permitted,2 YEARS - 5 YEARS,136,No,ACS Contracted Preschools,-74.001246,40.646272
BCA EARLY CHILDHOOD EDUCATION CENTER 5,BROOKLYN CHINESE-AMERICAN ASSOCIATION INC,871 50TH STREET,BROOKLYN,11220,718-438-0008,41797,5/29/2015,  Permitted,2 YEARS - 5 YEARS,102,No,Private,-74.001763,40.640183
BCA EARLY CHILDHOODEDUCATION CENTER 8,BROOKLYN CHINESE-AMERICAN ASSOCIATION INC,4116  8TH AVENUE,BROOKLYN,11232,718-438-0008,48957,7/26/2015,  Permitted,2 YEARS - 5 YEARS,30,No,Private,-73.999003,40.645972
BCM  DAY CARE-INFANT/TODDLER,BEIS CHAYA MUSHKA,1505 CARROLL STREET,BROOKLYN,11213,718-756-0770,8401,10/11/2015,  Permitted,0 YEARS - 2 YEARS,83,No,Private,-73.937053,40.666667
BEACHBROOK NURSERY SCHOOL,BEACHBROOK NURSERY SCHOOL,2953 AVENUE X,BROOKLYN,11235,718-648-7162,1831,1/14/2014,  Expired-InRenewal,2 YEARS - 5 YEARS,44,No,Private,-73.939294,40.594378
BEANSPROUTS,BEANSPROUTS INC OF BROOKLYN,446 6TH AVENUE,BROOKLYN,11215,718-965-8573,6062,7/8/2015,  Permitted,2 YEARS - 5 YEARS,25,No,Private,-73.984531,40.667675
BEANSPROUTS,BEANSPROUTS INC OF BROOKLYN,454-456 6 AVENUE,BROOKLYN,11215,718-369-3479,6170,10/4/2014,  Permitted,2 YEARS - 5 YEARS,29,No,Private,-73.984815,40.667324
BEANSPROUTS,BEANSPROUTS INC OF BROOKLYN,506 6TH AVENUE,BROOKLYN,11215,718-965-8573,7158,9/29/2015,  Permitted,2 YEARS - 5 YEARS,29,No,Private,-73.986106,40.665831
BEANSPROUTS OF BROOKYNINC,BEANSPROUTS INC OF BROOKLYN,410 6 AVENUE,BROOKLYN,11215,718-788-7059,5215,5/23/2014,  Permitted,2 YEARS - 5 YEARS,49,No,Private,-73.983607,40.668898
BEDFORD STUYVESANT EARLY CHILDHOOD DEVELOPMENT CENTER INC,BEDFORD STUYVESANT EARLY CHILDHOOD DEVELOPMENT CENTER INC,133 KINGSBOROUGH  1ST WALK,BROOKLYN,11233,718-453-0828,4348,12/2/2014,  Permitted,2 YEARS - 5 YEARS,34,Yes,ACS Head Start,-73.927025,40.675628
BEDFORD STUYVESANT EARLY CHILDHOOD DEVELOPMENT CENTER INC,BEDFORD STUYVESANT EARLY CHILDHOOD DEVELOPMENT CENTER INC,260 JEFFERSON AVENUE,BROOKLYN,11216,718-453-0722,5051,8/5/2015,  Permitted,2 YEARS - 5 YEARS,37,Yes,ACS Head Start,-73.947187,40.683367
BEDFORD STUYVESANT EARLY CHILDHOOD DEVELOPMENT CENTER INC,BEDFORD STUYVESANT EARLY CHILDHOOD DEVELOPMENT CENTER INC,5 QUINCY STREET,BROOKLYN,11238,718-453-0788,5170,12/3/2014,  Permitted,2 YEARS - 5 YEARS,213,Yes,Head Start Direct Fed Funding,-73.961102,40.686125
BEDFORD STUYVESANT EARLY CHILDHOOD DEVELOPMENT CENTER INC,BEDFORD STUYVESANT EARLY CHILDHOOD DEVELOPMENT INC,813 HANCOCK STREET,BROOKLYN,11233,718-455-5565,54541,11/26/2015,  Permitted,2 YEARS - 5 YEARS,215,No,Private,-73.922852,40.685871
BEDFORD STUYVESANT EARLY CHILDHOOD DEVELOPMENT CENTER INC,BEDFORD STUYVESANT EARLY CHILDHOOD DEVELOPMENT CENTER INC,971 DEKALB AVENUE,BROOKLYN,11221,718-453-0681,2210,11/10/2014,  Permitted,2 YEARS - 5 YEARS,30,Yes,ACS Head Start,-73.936438,40.693464
BEDFORD STUYVESANT EARLY CHILDHOOD DEVELOPMENT CENTER INC,BEDFORD STUYVESANT EARLY CHILDHOOD DEVELOPMENT CENTER INC,262 LEXINGTON AVENUE,BROOKLYN,11216,718-453-0760,4297,3/25/2015,  Permitted,2 YEARS - 5 YEARS,57,No,ACS Head Start,-73.951539,40.687249
BEDFORD STUYVESANT EARLY CHILDHOOD DEVELOPMENT CENTER INC,BEDFORD STUYVESANT EARLY CHILDHOOD DEVELOPMENT CENTER INC,275 MARCUS GARVEY BOULEVARD,BROOKLYN,11221,718-453-0500,4413,7/25/2015,  Permitted,2 YEARS - 5 YEARS,60,Yes,ACS Head Start,-73.938716,40.688097
BEDFORD STUYVESANT EARLY CHILDHOOD DEVELOPMENT CENTER INC,BEDFORD STUYVESANT EARLY CHILDHOOD DEVELOPMENT CENTER INC,281 STUYVESANT AVENUE,BROOKLYN,11221,718-455-3686,31017,1/18/2015,  Permitted,2 YEARS - 5 YEARS,35,No,ACS Contracted Preschools,-73.93216,40.684876
BEDFORD STUYVESANT EARLY CHILDHOOD DEVELOPMENT CENTER INC,BEDFORD STUYVESANT EARLY CHILDHOOD DEVELOPMENT CENTER INC,500 MACON STREET,BROOKLYN,11233,718-453-0780,33058,2/21/2015,  Permitted,2 YEARS - 5 YEARS,20,No,ACS Contracted Preschools,-73.929959,40.683048
BEDFORD STUYVESANT EARLY CHILDHOOD DEVELOPMENT CENTER INC,BEDFORD STUYVESANT EARLY CHILDHOOD DEVELOPMENT CENTER INC,990 DEKALB AVENUE,BROOKLYN,11221,718-574-2365,32817,2/19/2015,  Permitted,2 YEARS - 5 YEARS,20,No,ACS Contracted Preschools,-73.934867,40.692923
BEDFORD STUYVESANT HEAD START,BEDFORD STUYVESANT EARLY CHILDHOOD DEVELOPMENT CENTERINC,214 STUYVESANT AVENUE,BROOKLYN,11221,718-453-0695,5474,4/6/2015,  Permitted,2 YEARS - 5 YEARS,37,Yes,ACS Head Start,-73.933283,40.687809
BEDFORD STUYVESSANT EARLY CHILDHOOD DEVELOPMENT CENTER INC,BEDFORD STUYVESANT EARLY CHILDHOOD DEVELOPMENT CENTER INC,510-522 QUINCY STREET,BROOKLYN,11221,718-455-4806,7491,11/21/2015,  Permitted,2 YEARS - 5 YEARS,105,Yes,Head Start Direct Fed Funding,-73.940238,40.687906
BEDROCK PRESCHOOL / BEDROCK PRESCHOOL P/S,BEDROCK AT COBBLE HILL INC,3220  ARLINGTON AVENUE,BRONX,10463,718-884-0020,8383 / 8384,8/31/2015 / 8/31/2015,  Permitted /   Permitted,0 YEARS - 5 YEARS,68,No,Private,-73.911968,40.884668
BEGINNING WITH CHILDREN PRE-K,SHELTERING ARMS DAY CARE SERVICES INC,11 BARTLETT STREET,BROOKLYN,11206,718-388-8847,8209,8/26/2014,  Permitted,2 YEARS - 5 YEARS,18,No,Private,-73.948183,40.700264
BEGINNINGS NURSERY / BEGINNINGS NURSERY SCHOOL,BEGINNINGS NURSERY / BEGINNINGS NURSERY SCHOOL,130  EAST 16TH STREET,MANHATTAN,10003,212-228-5679,9239 / 9240,11/30/2015 / 11/30/2015,  Permitted /   Permitted,0 YEARS - 5 YEARS,85,No,Private,-73.987367,40.734904
BEIS SHLOMO ZALMEN DAY CARE CENTER,BEIS SHLOMO ZALMEN,262 DELANCEY STREET,MANHATTAN,10002,212-475-1860,10077,12/16/2015,  Permitted,2 YEARS - 5 YEARS,42,Yes,Private,-73.980622,40.716764
BELLEVUE EDUCARE CHILD  CARE CENTER  P/S  / BELLEVUE EDUCARE CHILD CARE CENTER I/T PROGRAM,BELLEVUE DAY CARE INC / BELLEVUE DAY CARE CENTER INC,462 FIRST AVENUE,MANHATTAN,10016,212-679-2393,7556 / 7557,3/16/2014 / 3/15/2015,  Expired-InRenewal /   Permitted,0 YEARS - 5 YEARS,41,No,ACS Contracted Preschools,-73.976108,40.739642
BELLEVUE SOUTH NURSERY SCHOOL,BELLEVUE SOUTH NURSERY SCHOOL,10 WATERSIDE PLAZA,MANHATTAN,10010,212-684-0134,2412,4/28/2015,  Permitted,2 YEARS - 5 YEARS,16,No,Private,-73.97398,40.736845
BELMONT COMMUNITY DAY CARE CENTER INC,BELMONT COMMUNITY DAY CARE CENTER INC,2340 CAMBRELENG AVENUE,BRONX,10458,718-584-1576,4042,7/20/2015,  Permitted,2 YEARS - 5 YEARS,134,No,ACS Contracted Preschools,-73.885149,40.853628
BERRY PATCH DAYCARE,BERRY PATCH DAYCARE CORPORATION,358 OVINGTON AVENUE,BROOKLYN,11209,718-836-8342,8225,11/30/2014,  Permitted,2 YEARS - 5 YEARS,18,No,Private,-74.024944,40.633969
BESSIE  NORAS PLACE,BESSIE  NORAS PLACE,90-05  161 STREET,QUEENS,11432,718-739-0884,7485,10/31/2015,  Permitted,2 YEARS - 5 YEARS,30,No,Private,-73.799032,40.705231
BETANCES EARLY CHILDHOOD DEVELOPMENT CENTER,EPISCOPAL SOCIAL SERVICES,528 EAST 146TH STREET,BRONX,10455,718-665-1100,24098,10/5/2014,  Permitted,2 YEARS - 5 YEARS,75,No,ACS Contracted Preschools,-73.915113,40.812445
BETH GAVRIEL DAY CARE CENTER INC,BETH GAVRIEL DCC INC,119-03 80 ROAD,QUEENS,11415,718-544-2539,7609,7/12/2014,  Permitted,2 YEARS - 5 YEARS,66,No,Private,-73.832503,40.712533
BETH GAVRIEL OHEL SARA,BABOVE WORLD WIDE INSTITUTE INC,66-35 108TH STREET,QUEENS,11375,718-805-2252,52258,9/19/2015,  Permitted,2 YEARS - 5 YEARS,78,No,ACS Contracted Preschools,-73.847396,40.729371
BETH JACOB DAY CARE CENTER,BETH JACOB DAY CARE CENTERINC,1363 46TH STREET,BROOKLYN,11219,718-435-5755,4735,2/2/2014,  Expired-InRenewal,2 YEARS - 5 YEARS,302,No,ACS Contracted Preschools,-73.988602,40.635893
BETH JACOB JEWISH ED CTR,BETH JACOB JEWISH ED CTRINC,102-35 63 ROAD,QUEENS,11375,718-896-4444,7218,3/22/2014,  Expired-InRenewal,2 YEARS - 5 YEARS,113,No,Private,-73.853547,40.733463
BETHEL MISSION LOVING DCC,BETHEL MISSION STATION CHURCHINCBETHEL MISSION STATION CHURCHINC,338 BEACH 56 STREET,QUEENS,11692,718-474-8618,6151,7/15/2015,  Permitted,2 YEARS - 5 YEARS,55,No,ACS Contracted Preschools,-73.785659,40.593585
BETTER COMMUNITY LIFE DAY CARE  2,THE LEAGUE FOR BETTER COMMUNITY LIFE INC,133-16 ROOSEVELT AVENUE,QUEENS,11354,718-463-0403,5292,9/20/2014,  Permitted,2 YEARS - 5 YEARS,59,No,ACS Contracted Preschools,-73.833183,40.758144
BEYOND BASIC LEARNING ON THE GREEN,BBLI AT WASHINGTON AVENUE LLC,163 WASHINGTON AVENUE,BROOKLYN,11205,718-622-1000,54717,12/3/2015,  Permitted,0 YEARS - 2 YEARS,27,No,Private,-73.966499,40.693855
BFFY-MADELINE JONES HEAD START,CATHOLIC CHARITIES NEIGHBORHOOD SERVICES,3415 NEPTUNE AVENUE,BROOKLYN,11224,718-266-5962,4360,6/28/2014,  Permitted,2 YEARS - 5 YEARS,80,No,ACS Head Start,-74.001413,40.577681
BIG APPLE DAY CARE INC INFANT/TODDLER / BIG APPLE DAY CARE INC PRESCHOOL,BIG APPLE DAY CAREINC,2020 AVENUE X,BROOKLYN,11235,718-332-2296,8206 / 8207,6/1/2014 / 6/1/2014,  Permitted /   Permitted,0 YEARS - 5 YEARS,22,No,Private,-73.949299,40.592644
BIG BIRDS PLAYHOUSE / BIG BIRDS PLAYHOUSE CORP / BIG BIRDS TINY TOTS,BIG BIRDS PLAYHOUSE CORP,1859 RICHMOND AVENUE,STATEN ISLAND,10314,718-982-0550,6467 / 6575 / 6840,3/1/2016 / 5/11/2014 / 9/14/2015,  Permitted /   Permitted /   Permitted,0 YEARS - 5 YEARS,127,No,Private,-74.162819,40.60246
BIG BIRDS TODDLER TIME,1869 RICHMOND AVENUE HOLDINGS LLC,1869 RICHMOND AVENUE,STATEN ISLAND,10314,917-686-5337,25337,10/16/2014,  Permitted,2 YEARS - 5 YEARS,28,No,Private,-74.162882,40.60206
BILINGUAL BUDS,BILINGUAL BUDS N Y C INC,180 RIVERSIDE BLVD,MANHATTAN,10069,212-787-8088,8144,4/26/2014,  Permitted,2 YEARS - 5 YEARS,53,No,Private,-73.98801,40.778397
BILLY MARTIN CHILD DEVELOPMENT CENTER,BILLY MARTIN CHILD DEVELOPMENT CENTER,333 CLASSON AVENUE,BROOKLYN,11205,718-857-5630,2165,4/6/2014,  Permitted,2 YEARS - 5 YEARS,70,No,ACS Contracted Preschools,-73.95982,40.690016
BIRCH FAMILY SERVICES - MANHATTAN EARLY CHILDHOOD CENTER,HERBERT G BIRCH SERVICES INC,554 FORT WASHINGTON AVENUE,MANHATTAN,10033,212-740-5157,5997,3/13/2016,  Permitted,2 YEARS - 5 YEARS,169,No,ACS Head Start,-73.937191,40.853857
BIRCH FAMILY SERVICES - WESTERN QUEENS EARLY CHILDHOOD CENTER,BIRCH FAMILY SERVICES - WESTERN QUEENS EARLY CHILDHOOD CENTER,10-24 49 AVENUE,QUEENS,11101,718-786-1104,6700,12/4/2013,  Expired-InRenewal,2 YEARS - 5 YEARS,135,Yes,Private,-73.953092,40.743029
BIRCH FAMILY SERVICES INC,BIRCH FAMILY SERVICES INC,145-02 FARMERS BOULEVARD,QUEENS,11434,718-527-5220,6603 / 2272,10/29/2014 / 3/14/2015,  Permitted /   Permitted,2 YEARS - 5 YEARS,233,Yes,ACS Head Start / Private,-73.767832,40.666047
BIRCH FAMILY SERVICES INC,BIRCH FAMILY SERVICES INC,475 EAST 57TH STREET,BROOKLYN,11203,718-451-5213,7295,11/20/2014,  Permitted,2 YEARS - 5 YEARS,60,Yes,Head Start Direct Fed Funding,-73.922274,40.643728
BIRCH FAMILY SERVICES INC / MILL BASIN EARLY CHILDHOOD CENTER,BIRCH FAMILY SERVICES INC,2075 EAST 68TH STREET,BROOKLYN,11234,718-968-7866,6378,7/18/2015,  Permitted,2 YEARS - 5 YEARS,76,No,Private,-73.909624,40.618868
BIRCH WATSON AVENUE EARLY CHILDHOOD CENTER,BIRCH FAMILY SERVICESINC,1880 WATSON AVENUE,BRONX,10472,718-828-9400,6497,3/3/2016,  Permitted,2 YEARS - 5 YEARS,180,No,ACS Contracted Preschools,-73.861342,40.828011
BISHOP SEXTON HEAD START,ST MARKS METHODIST EPISCOPAL CHURCH,933 HERKIMER STREET,BROOKLYN,11233,718-778-0292,6675,9/8/2015,  Permitted,2 YEARS - 5 YEARS,134,Yes,ACS Head Start,-73.922486,40.678328
BLAKE-MILFORD DAY CARE CENTER-I/T / BLAKE-MILFORD DAY CARE CENTER-P/S,CHRISTINA DAY CARE INC,334 MILFORD STREET,BROOKLYN,11208,718-277-2003,7709 / 7704,1/22/2016 / 1/22/2015,  Permitted /   Permitted,0 YEARS - 5 YEARS,50,Yes,Private,-73.87633,40.670755
BLANCHE COMMUNITY PROGRESS DAY CARE CENTER INC,BLANCHE COMMUNITY  PROGRESS DAY CARE CENTER INC,109-60 202 STREET,QUEENS,11412,718-479-1800,6776,11/18/2014,  Permitted,2 YEARS - 5 YEARS,114,No,ACS Contracted Preschools,-73.755722,40.70613
BLANCHE COMMUNITY PROGRESS DCC 2,BLANCHE COMMUNITY PROGRESS DAY CAREINC,44-02 BEACH CHANNEL DRIVE,QUEENS,11691,718-471-7881,7083,3/7/2015,  Permitted,2 YEARS - 5 YEARS,166,No,ACS Contracted Preschools,-73.776126,40.595903
BLOCK ACADEMY,BLOCK INSTITUTE SCHOOL,133 27TH AVENUE,BROOKLYN,11214,347-649-3601,8353,7/1/2015,  Permitted,2 YEARS - 5 YEARS,109,Yes,Private,-73.987307,40.590505
BLOCK INSTITUTE SCHOOL,BLOCK INSTITUTE SCHOOL,376 BAY 44 STREET,BROOKLYN,11214,718-906-5432,6006,1/27/2016,  Permitted,2 YEARS - 5 YEARS,165,Yes,Private,-73.994004,40.587856
BLONDELL JOYNER DAY CARE CENTER,SOUTH EAST BRONX NEIGHBORHOOD CENTER INC,901-909 TINTON AVENUE,BRONX,10456,718-665-7791,1843,9/5/2015,  Permitted,2 YEARS - 5 YEARS,60,No,ACS Contracted Preschools,-73.903795,40.821975
BLOOMINGDALE  FAMILY PROGRAM  HEAD START,BLOOMINGDALE FAMILY PROGRAM INC,987 COLUMBUS AVENUE,MANHATTAN,10025,212-665-4631,6374,7/19/2015,  Permitted,2 YEARS - 5 YEARS,95,No,ACS Head Start,-73.961421,40.800711
BLOOMINGDALE FAMILY PROGRAM,BLOOMINGDALE FAMILY PROGRAM INC,171 WEST 107 STREET,MANHATTAN,10025,212-663-4070,5812,1/14/2016,  Permitted,2 YEARS - 5 YEARS,48,No,Private,-73.964514,40.801072
BLOOMINGDALE FAMILY PROGRAM INC / CATHEDRAL PARKWAY TOWERS PRESCHOOL,BLOOMINGDALE FAMILY PROGRAM INC / CATHEDRAL PARKWAY TOWERS PRESCHOOL INC,125 WEST 109 STREET,MANHATTAN,10025,212-663-4067 / 212-749-0291,4968 / 4675,11/20/2013 / 2/9/2015,  Expired-InRenewal /   Permitted,2 YEARS - 5 YEARS,69,No,ACS Head Start / Private,-73.962979,40.802129
BLUE RIBBON DAY CARE CENTER,BLUE RIBBON DAY CARE CENTERINC,984 SUTTER AVENUE,BROOKLYN,11208,718-484-7202,8213,9/13/2014,  Permitted,2 YEARS - 5 YEARS,20,No,Private,-73.882377,40.671119
BLUE SKY MONTESSORI PRESCHOOL,BLUE SKY DAY CARE INC,856 50TH STREET,BROOKLYN,11220,718-633-1178,40397,5/16/2015,  Permitted,2 YEARS - 5 YEARS,40,No,Private,-74.00243,40.640084
BLUE STAR DAY CARE CENTER,BLUE STAR OF NEW YORK INC,2217 CATON AVENUE,BROOKLYN,11226,718-703-4312,51618,9/5/2015,  Permitted,2 YEARS - 5 YEARS,74,No,Private,-73.956604,40.652942
BLUES CLUES DAY CARE / BLUES CLUES DC INC-I/T,BLUES CLUES DCINC,2249 EAST 21ST STREET,BROOKLYN,11229,718-676-0420,8093 / 8094,11/2/2015 / 11/2/2015,  Permitted /   Permitted,0 YEARS - 5 YEARS,44,No,Private,-73.949732,40.597629
BMCC EARLY CHILDHOOD CENTERINC,BMCC EARLY CHILDHOOD CENTERINC,199 CHAMBERS STREET,MANHATTAN,10013,212-220-8250,7168,9/1/2014,  Permitted,2 YEARS - 5 YEARS,92,No,Private,-74.011848,40.71866
BNOS MALKA BELZ / YELED V YALDA HEAD START,BNOS MALKE BELZ / YELED V YALDA EARLY CHILDHOOD CENTERINC,600 MCDONALD AVENUE,BROOKLYN,11218,718-683-3610 / 718-854-7192,37137 / 5735,4/12/2015 / 10/6/2014,  Permitted /   Permitted,2 YEARS - 5 YEARS,180,No,ACS Contracted Preschools / ACS Head Start,-73.978912,40.639467
BNOS YAKOV HEAD START,YESHIVATH KEHILATH YAKOV,274 KEAP STREET,BROOKLYN,11211,718-486-6500,5138,10/11/2015,  Permitted,2 YEARS - 5 YEARS,167,No,ACS Head Start,-73.955584,40.706587
BOOKS  RATTLES INC II / BOOKS AND RATTLESINCII,BOOKS  RATTLES INC II / BOOKSRATTLES INCII,75-02 51 AVENUE,QUEENS,11373,718-899-1532,6659 / 6658,5/11/2015 / 1/4/2016,  Permitted /   Permitted,0 YEARS - 5 YEARS,128,No,Private,-73.888207,40.736411
BOOKS  RATTLES PRESCHOOL / BOOKS AND RATTLES TODDLER PROGRAM,BOOKS AND RATTLES INC / BOOKS AND RATTLES TODDLER PROGRAM,63-08 69 PLACE,QUEENS,11379,718-381-7777,7117 / 7149,4/18/2015 / 6/13/2015,  Permitted /   Permitted,0 YEARS - 5 YEARS,101,No,Private,-73.886702,40.715908
BOULEVARD NURSERY SCHOOL INC,BOULEVARD NURSERY SCHOOL INC,2150 LINDEN BOULEVARD,BROOKLYN,11207,718-649-2295,1489,8/3/2015,  Permitted,2 YEARS - 5 YEARS,70,No,Private,-73.883396,40.661229
BOYS  GIRLS HARBOR  PRESCHOOL / BOYS AND GIRLS HABOR INFANT TODDLER PROGRAM,BOYS AND GIRLS HARBORINC / BOYS HARBOR INC,1 EAST 104 STREET,MANHATTAN,10029,212-427-2244,5100 / 5713,11/29/2014 / 8/14/2015,  Permitted /   Permitted,0 YEARS - 5 YEARS,145,No,ACS Contracted Preschools,-73.951395,40.793106
BPOS,BPOS CORP,11 WYCKOFF STREET,BROOKLYN,11201,718-344-4631,51300,8/29/2015,  Permitted,2 YEARS - 5 YEARS,70,No,Private,-73.993073,40.687105
BREUKELEN EARLY CHILDHOOD DEVELOPMENT CENTER,RECREATION ROOMS AND SETTLEMENT,717 EAST 105 STREET,BROOKLYN,11236,718-649-1463,1221,2/28/2015,  Permitted,2 YEARS - 5 YEARS,70,No,ACS Contracted Preschools,-73.895456,40.648861
BREUKELEN RECREATION ROOMS HEAD START/UPK,RECREATION ROOMS AND SETTLEMENT,715 EAST 105 STREET,BROOKLYN,11236,718-649-2960,2302,3/1/2014,  Expired-InRenewal,2 YEARS - 5 YEARS,34,No,ACS Head Start,-73.895456,40.648861
BREVOORT CHILDRENS CENTER,BROOKLYN KINDERGARTEN SOCIETY,250 RALPH AVENUE,BROOKLYN,11233,718-778-1069,1172,12/12/2014,  Permitted,2 YEARS - 5 YEARS,52,No,ACS Contracted Preschools,-73.923535,40.680656
BRIGHT BEGINNINGS,BRIGHT BEGINNINGS WOODSIDE,49-22 30 AVENUE,QUEENS,11377,718-777-6664,7184,11/20/2015,  Permitted,2 YEARS - 5 YEARS,23,No,ACS Contracted Preschools,-73.907386,40.760078
BRIGHT BEGINNINGS IN QUEENS VILLAGE INC,BRIGHT BEGINNINGS IN QUEENS VILLAGEINC / BRIGHT BEGINNINGS IN QUEENS VILLAGE INFANT TODDLER,80-45 WINCHESTER BOULEVARD,QUEENS,11427,718-264-3860,5887 / 5890,7/2/2014 / 7/20/2015,  Permitted /   Permitted,0 YEARS - 5 YEARS,72,No,Private,-73.72898,40.737062
BRIGHT BEGINNINGS INFANT/TODDLER / BRIGHT BEGINNINGS PRE-SCHOOL,BRITE ADVENTURE CENTER INC,86-25 162 STREET,QUEENS,11432,718-297-6767,5976 / 5099,6/1/2015 / 11/16/2015,  Permitted /   Permitted,0 YEARS - 5 YEARS,129,No,ACS Contracted Preschools,-73.80103,40.710068
BRIGHT BEGINNINGS NYC LLC,BRIGHT BEGINNINGS NYC LLC,80 BEEKMAN STREET,MANHATTAN,10038,917-676-1725,55478,12/23/2015,  Permitted,2 YEARS - 5 YEARS,26,No,Private,-74.004101,40.70907
BRIGHT HORIZONS AT NEW YORK PRESBYTERIAN / BRIGHT HORIZONS CHILDREN CENTER INC,BRIGHT HORIZONS CHILDRENS CENTERINC / BRIGHT HORIZONS CHILDRENS CENTERS INC,61 HAVEN AVE,MANHATTAN,10032,212-927-2723,7681 / 7680,11/29/2014 / 2/1/2014,  Permitted /   Expired-InRenewal,0 YEARS - 5 YEARS,66,No,Private,-73.942576,40.843407
BRIGHT HORIZONS / LIPTON CORP CHILD CARE INC,LIPTON CORPORATE CHILD CARE INC / BRIGHT HORIZONS CHILD CARE CENTER INC,410 PARK AVENUE,MANHATTAN,10022,212-354-5222,7558 / 7559,1/4/2016 / 1/4/2015,  Permitted /   Permitted,0 YEARS - 5 YEARS,27,No,Corporate,-73.972239,40.760285
BRIGHT HORIZONS   575 LEXINGTON AVE / BRIGHT HORIZONS  575  LEXINGTON AVE INFANT/TODDLER,BRIGHT HORIZONS CHILDREN CENTERS INC / BRIGHT HORIZONS CHILDRENS CENTER,575 LEXINGTON AVENUE,MANHATTAN,10022,212-758-6262,6732 / 6731,10/18/2015 / 10/18/2015,  Permitted /   Permitted,0 YEARS - 5 YEARS,30,No,Corporate,-73.971293,40.757176
BRIGHT HORIZONS  AT  PEARL STREET,BRIGHT HORIZONS CHILDRENS CENTER INC,128 PEARL  STREET,MANHATTAN,10005,212-422-5222,7980,4/23/2015,  Permitted,2 YEARS - 5 YEARS,10,No,Private,-74.008683,40.704885
BRIGHT HORIZONS  AT  ROCKEFELLER  CENTER,BRIGHT HORIZONS CHILDRENS CENTER INC,600 FIFTH AVENUE,MANHATTAN,10020,212-332-8181,6729 / 6728,9/30/2015 / 9/30/2015,  Permitted /   Permitted,0 YEARS - 5 YEARS,33,No,Corporate,-73.97845,40.757677
BRIGHT HORIZONS  AT 200 PARK AVENUE  INFANT TODDLER / BRIGHT HORIZONS  PRESCHOOL AT 200 PARK  AVENUE,BRIGHT HORIZONS CHILDRENS CENTER INC,200 PARK AVENUE,MANHATTAN,10017,212-286-5437,6138 / 6139,9/13/2015 / 9/13/2015,  Permitted /   Permitted,0 YEARS - 5 YEARS,36,No,Corporate,-73.976288,40.754368
BRIGHT HORIZONS  AT THE OCTAGON / BRIGHT HORIZONS AT THE OCTAGON,BRIGHT HORIZONS CHILDRENS CENTER INC,888 MAIN STREET,MANHATTAN,10044,212-750-5301,7651 / 7648,10/1/2015 / 10/3/2014,  Permitted /   Permitted,0 YEARS - 5 YEARS,50,No,Corporate,-73.943562,40.769008
BRIGHT HORIZONS  TIMES SQUARE / BRIGHT HORIZONS TIMES SQUARE,BRIGHT HORIZONS CHILDRENS CENTERS INC / BRIGHT HORIZONS CHILDRENS CENTER INC,4 TIMES SQUARE,MANHATTAN,10036,212-840-3336,7111 / 7102,2/18/2015 / 9/30/2015,  Permitted /   Permitted,0 YEARS - 5 YEARS,24,No,Corporate,-73.985682,40.756003
BRIGHT HORIZONS AT  NEW YORK  PRESBYTERIAN  HOSPITAL / BRIGHT HORIZONS AT NY PRESBYTERIAN HOSPITAL,BRIGHT HORIZONS CHILDRENS CENTERS INC / BRIGHT HORIZONS CHILDRENS CENTER INC,435 EAST 70 STREET,MANHATTAN,10021,212-746-6543,7266 / 7267,9/23/2013 / 10/8/2014,  Expired-InRenewal /   Permitted,0 YEARS - 5 YEARS,62,No,Private,-73.954968,40.766058
BRIGHT HORIZONS AT 20 PINE,BRIGHT HORIZONS CHILDRENS CENTER LLC,20 PINE STREET,MANHATTAN,10005,212-509-1580,7978 / 7977,4/21/2015 / 4/21/2015,  Permitted /   Permitted,0 YEARS - 5 YEARS,170,No,Private / Corporate,-74.009727,40.707726
BRIGHT HORIZONS AT 75 ROCKEFELLER PLAZA / BRIGHT HORIZONS FAMILY SOLUTIONS  75 ROCKEFELLER PLAZA,BRIGHT HORIZONS CHILDRENS CENTERS INC / BRIGHT HORIZONS FAMILY SOLUTIONS,75 ROCKEFELLER PLAZA,MANHATTAN,10019,212-757-2301,7572 / 7601,7/1/2015 / 5/24/2014,  Permitted /   Permitted,0 YEARS - 5 YEARS,110,No,Corporate,-73.977671,40.760057
BRIGHT HORIZONS AT ADAMS STREET,BRIGHT HORIZONS CHILDRENS CENTER LLC,345 ADAMS STREET,BROOKLYN,11201,718-488-7770,47757 / 47817,7/11/2015 / 7/11/2015,  Permitted /   Permitted,0 YEARS - 5 YEARS,164,No,Private,-73.988425,40.692722
BRIGHT HORIZONS AT BARCLAYS CAPITAL,CHILDREN FIRST INC,745 SEVENTH AVENUE,MANHATTAN,10019,212-526-1500,7205 / 7206,3/6/2014 / 2/21/2015,  Expired-InRenewal /   Permitted,0 YEARS - 5 YEARS,22,No,Corporate,-73.982951,40.760556
BRIGHT HORIZONS AT COLUMBUS CIRCLE I/T / BRIGHT HORIZONS AT COLUMBUS CIRCLE PS,BRIGHT HORIZONS CHILDRENS CENTER LLC / BRIGHT HORIZONS CHILDRENS CENTERS LLC,910 9TH AVENUE,MANHATTAN,10019,212-399-3919,30038 / 30039,1/3/2015 / 1/3/2015,  Permitted /   Permitted,0 YEARS - 5 YEARS,165,No,Private,-73.984425,40.768654
BRIGHT HORIZONS AT KENT AVENUE,BRIGHT HORIZONS CHILDRENS CENTER LLC,175 KENT AVENUE,BROOKLYN,11249,718-302-1113,49777 / 49798,8/8/2015 / 8/8/2015,  Permitted /   Permitted,0 YEARS - 5 YEARS,169,No,Private,-73.963825,40.718067
BRIGHT HORIZONS BROAD STREET,BRIGHT HORIZONS CHILDRENS CENTER INC,125 BROAD STREET,MANHATTAN,10004,212-487-9035 / 917-577-6810,6215 / 6216,7/19/2015 / 7/19/2015,  Permitted /   Permitted,0 YEARS - 5 YEARS,31,No,Corporate,-74.010517,40.702339
BRIGHT HORIZONS FAMILY SOLUTIONS,BRIGHT HORIZONS CHILDRENS CENTERS LLC,409 EAST 60TH STREET,MANHATTAN,10022,212-750-4534,51198 / 51197,8/27/2015 / 8/27/2015,  Permitted /   Permitted,0 YEARS - 5 YEARS,56,No,Private,-73.960512,40.760061
BRIGHT KIDS DAY CARE,NELOYINC,108-42 SUTPHIN BLVD,QUEENS,11435,718-262-0909,11638,2/1/2016,  Permitted,2 YEARS - 5 YEARS,28,No,Private,-73.798581,40.691944
BRIGHT MINDS CENTER,ALPHA WIT LLC,90 MAIDEN LANE,MANHATTAN,10038,212-227-2600,53397,10/23/2015,  Permitted,2 YEARS - 5 YEARS,60,No,Private,-74.007494,40.706917
BRIGHT STAR STRATFORD INC,LALARUKH QURESHI,1217 STRATFORD  AVENUE,BRONX,10472,718-842-9361,58678 / 58657,3/13/2016 / 3/13/2016,  Permitted /   Permitted,0 YEARS - 5 YEARS,64,No,Private,-73.875947,40.829787
BRIGHTER BABIES I -INFANT TODDLER / BRIGHTER BABIES I1-PRE SCH,BRIGHTER BABIES INC,2-17 51 AVENUE,QUEENS,11101,718-786-2273,9318 / 12817,12/1/2013 / 2/24/2014,  Expired-InRenewal /   Expired-InRenewal,0 YEARS - 5 YEARS,48,No,Private,-73.957997,40.742978
BRIGHTSIDE ACADEMY / BRIGHTSIDE ACADEMY INC,BRIGHTSIDE ACADEMY / BRIGHTSIDE ACADEMYINC,331 EAST 150 STREET,BRONX,10451,718-292-0812,7482 / 7565,10/15/2015 / 4/10/2015,  Permitted /   Permitted,0 YEARS - 5 YEARS,131,No,ACS Contracted Preschools,-73.920017,40.817663
BRIGHTSIDE ACADEMY,BRIGHTSIDE ACADEMY,3942 WHITE PLAINS ROAD,BRONX,10466,718-653-4043,40657 / 40177,5/20/2015 / 5/15/2015,  Permitted /   Permitted,0 YEARS - 5 YEARS,158,No,Private / ACS Contracted Preschools,-73.860641,40.886788
BRIGHTSIDE ACADEMY,BRIGHTSIDE ACADEMY INC,50-56 BELMONT AVENUE,BROOKLYN,11212,718-346-1064,25438 / 25617,10/17/2014 / 10/18/2014,  Permitted /   Permitted,0 YEARS - 5 YEARS,138,No,Private / ACS Contracted Preschools,-73.908318,40.668522
BRIGHTSIDE ACADEMY / BRIGHTSIDE ACADEMY INC  INFANT/TODDLER,BRIGHTSIDE ACADEMYINC,679 NEW LOTS AVENUE,BROOKLYN,11207,718-257-2222,8719 / 8718,11/22/2015 / 11/22/2015,  Permitted /   Permitted,0 YEARS - 5 YEARS,142,No,Private,-73.884864,40.66552
BRIGHTSIDE ACADEMY / BRIGHTSIDE ACADEMY-PRESCHOOL,BRIGHTSIDE ACADEMY INC,844 DEKALB AVENUE,BROOKLYN,11221,718-574-3710,27357 / 27420,11/15/2014 / 11/16/2014,  Permitted /   Permitted,0 YEARS - 5 YEARS,160,No,Private,-73.942241,40.692187
BRIGHTSIDE ACADEMY / BRIGHTSIDE ACADEMY - I/T,BRIGHTSIDE ACADEMYINC,950 WESTCHESTER AVENUE,BRONX,10459,718-991-5465,8246 / 8245,12/20/2014 / 12/20/2014,  Permitted /   Permitted,0 YEARS - 5 YEARS,160,No,ACS Contracted Preschools / Private,-73.896483,40.822058
BRIGHTSIDE ACADEMY / INFANT/TODDLER / BRIGHTSIDE ACADEMY INC,BRIGHTSIDE ACADEMY INC / BRIGHTSIDE ACADEMYINC,1491 BROADWAY,BROOKLYN,11221,718-455-1612,8217 / 8218,9/29/2014 / 9/29/2014,  Permitted /   Permitted,0 YEARS - 5 YEARS,128,No,ACS Contracted Preschools,-73.917817,40.687392
BRIGHTSIDE ACADEMY INC / BRIGHTSIDE ACADEMY INC  INFANT/TODDLER,BRIGHTSIDE ACADEMY INC,1093  SOUTHERN BLVD,BRONX,10459,718-842-2252,12518 / 12458,2/16/2016 / 2/15/2016,  Permitted /   Permitted,0 YEARS - 5 YEARS,112,No,ACS Contracted Preschools,-73.892205,40.825847
BRIGHTSIDE ACADEMY INC,BRIGHTSIDE ACADEMY INC,780 ST ANNS AVENUE,BRONX,10456,718-585-1472,20697 / 26338,8/13/2014 / 10/25/2014,  Permitted /   Permitted,0 YEARS - 5 YEARS,136,No,ACS Contracted Preschools / Private,-73.909977,40.820248
BRIGHTSIDE ACADEMY INC,BRIGHTSIDE ACADEMYINC,1334 LOUIS NINE BOULEVARD,BRONX,10459,718-378-0544 / 718-991-2119,8392 / 8391,10/13/2015 / 10/13/2015,  Permitted /   Permitted,0 YEARS - 5 YEARS,227,No,ACS Contracted Preschools,-73.892097,40.831845
BRIGHTSIDE ACADEMY INC / BRIGHTSIDE ACADEMYINC,BRIGHTSIDE ACADEMYINC / BRIGHTSIDE ACADEMY INC,1465 WEBSTER AVENUE,BRONX,10456,718-681-3040,8107 / 8106,12/16/2015 / 12/16/2015,  Permitted /   Permitted,0 YEARS - 5 YEARS,152,No,Private / ACS Contracted Preschools,-73.90656,40.838076
BRIGHTSIDE ACADEMY INC / BRIGHTSIDE ACADEMY INC PRESCHOOL,BRIGHTSIDE ACADEMY INC,208 CLARKSON AVENUE,BROOKLYN,11226,718-941-1802,45682 / 45717,6/28/2015 / 6/28/2015,  Permitted /   Permitted,0 YEARS - 5 YEARS,161,No,ACS Contracted Preschools,-73.952524,40.654863
BRIGHTSIDE ACADEMY INC,BRIGHTSIDE ACADEMY INC / BRIGHTSIDE ACADEMYINC,2901 WHITE PLAINS ROAD,BRONX,10467,718-653-3714,8175 / 8174,6/7/2014 / 6/7/2014,  Permitted /   Permitted,0 YEARS - 5 YEARS,144,No,ACS Contracted Preschools,-73.867621,40.868376
BROADWAY PRESBYTERIAN CHURCH  NURSERY SCHOOL,BROADWAY PRESBYTERIAN CHURCH,601 WEST 114TH STREET,MANHATTAN,10025,212-864-6100,5754,2/28/2014,  Expired-InRenewal,2 YEARS - 5 YEARS,32,No,Private,-73.965171,40.807085
BRONX  EARLY  LEARNING CENTER,VOLUNTEERS OF AMERICA - GREATER NEW YORK,1887 BATHGATE AVENUE,BRONX,10457,718-466-3580,7801,9/21/2015,  Permitted,2 YEARS - 5 YEARS,272,Yes,Private,-73.897603,40.846494
BRONX  EARLY CHILDHOOD CENTER,THE CHILDRENS AID SOCIETY,1515 SOUTHERN BOULEVARD,BRONX,10460,718-764-2409,7444,9/5/2015,  Permitted,2 YEARS - 5 YEARS,94,Yes,ACS Contracted Preschools,-73.890624,40.833243
BRONX BAPTIST DAY CARE  LEARNING CENTER,BRONX BAPTIST CHURCH,331 EAST 187 STREET,BRONX,10458,718-933-4201,2894,4/30/2014,  Permitted,2 YEARS - 5 YEARS,40,No,Private,-73.895412,40.85981
BRONX COMMUNITY COLLEGE EARLY CHILDHOOD CENTER,BRONX COMMUNITY COLLEGE ASSOCIATION INC,2010 SEDGWICK AVENUE,BRONX,10453,718-289-5461,8278,4/7/2015,  Permitted,2 YEARS - 5 YEARS,115,No,ACS Contracted Preschools,-73.915213,40.857451
BRONX DAY CARE CENTER / BRONX DAYCARE,BRONX DAY CARE CENTER INC / BRONX DAY CARE,559 EAST TREMONT AVE,BRONX,10457,718-299-2275,8143 / 7951,3/25/2016 / 11/3/2014,  Permitted /   Permitted,0 YEARS - 5 YEARS,70,No,Private,-73.894852,40.846707
BRONX HOUSE,BRONX HOUSE INC,2222 WALLACE AVENUE,BRONX,10467,718-653-1044,1356,10/23/2014,  Permitted,2 YEARS - 5 YEARS,72,No,Private,-73.864144,40.858331
BRONX HOUSE,BRONX HOUSE,990 PELHAM PARKWAY SOUTH,BRONX,10462,718-792-1800,6697,12/5/2015,  Permitted,2 YEARS - 5 YEARS,102,No,Private,-73.86061,40.856537
BRONX ORGANIZATION FOR THE LEARNING DISABLED OF NEW YORK,BRONX ORGANIZATION FOR THE LEARNING DISABLED OF NEW YORKINC,2885 ST THERESA AVENUE,BRONX,10461,718-430-0981,8043,7/11/2015,  Permitted,2 YEARS - 5 YEARS,90,No,Private,-73.832739,40.849635
BRONX PARK EAST PREPARATORY INC,BRONX PARK EAST PREPARATORY INC,2270 BRONX PARK EAST,BRONX,10467,718-882-3261,7140,8/14/2015,  Permitted,2 YEARS - 5 YEARS,20,No,Private,-73.870473,40.859312
BRONX RIVER EARLY LEARN CENTER,TREMONT CROTONA DAY CARE CENTERINC,1555 EAST 174 STREET,BRONX,10472,718-842-6582,6464,2/27/2015,  Permitted,2 YEARS - 5 YEARS,60,No,ACS Contracted Preschools,-73.878286,40.834792
BRONX WORKS INC,BRONX WORKS INC,1472 MONTGOMERY AVENUE,BRONX,10453,718-299-0493,51998,9/16/2015,  Permitted,2 YEARS - 5 YEARS,55,No,Private,-73.920936,40.847383
BRONXDALE NURSERY AND KINDERGARTEN,BRONXDALE TENANTS LEAGUE DAY CARE CENTER INC,1065 -1085 BEACH AVENUE,BRONX,10472,718-991-8315,1137,6/26/2015,  Permitted,2 YEARS - 5 YEARS,60,No,ACS Contracted Preschools,-73.865631,40.827027
BRONXWORKS EARLY CHILDHOOD CENTER,BRONXWORK,1130 GRAND CONCOURSE,BRONX,10456,718-508-3056,7302,1/5/2015,  Permitted,2 YEARS - 5 YEARS,55,No,ACS Contracted Preschools,-73.918768,40.832566
BROOKLYN AMITY SCHOOL,BROOKLYN AMITY SCHOOL,3867 SHORE PARKWAY,BROOKLYN,11235,718-891-6100,18399,6/27/2014,  Permitted,2 YEARS - 5 YEARS,30,No,Private,-73.932237,40.586385
BROOKLYN BRIDGE CHILD DEVELOPMENT CENTER MANAGED BY BRIGHT HORIZONS,BRIGHT HORIZONS CHILDRENS CENTERS LLC,101 WILLOUGHBY STREET,BROOKLYN,11201,718-855-9725,35398 / 35377,3/13/2015 / 3/12/2015,  Permitted /   Permitted,0 YEARS - 5 YEARS,75,No,Private,-73.984967,40.69258
BROOKLYN CHILD CARE,BROOKLYN CHILD CARE INCORPORATED,800 POLY PLACE,BROOKLYN,11209,718-630-2831,6344,1/24/2015,  Permitted,2 YEARS - 5 YEARS,25,No,Private,-74.025219,40.609726
BROOKLYN CHINESE-AMERICAN ASSOCIATION,BROOKLYN CHINESE- AMERICAN ASSOCIATION INC,5002 8 AVENUE,BROOKLYN,11220,718-438-0008,6615,12/5/2014,  Permitted,2 YEARS - 5 YEARS,58,No,Private,-74.004039,40.641151
BROOKLYN CHINESE-AMERICAN ASSOCIATION,BROOKLYN CHINESE-AMERICAN ASSOCIATION,6409 20TH AVENUE,BROOKLYN,11204,718-438-0008,48297,7/18/2015,  Permitted,2 YEARS - 5 YEARS,70,No,ACS Contracted Preschools,-73.985247,40.616712
BROOKLYN CHINESE-AMERICAN ASSOCIATION,BROOKLYN CHINESE AMERICAN ASSOCIATION INC,812 54TH STREET,BROOKLYN,11220,718-438-0008,6939,3/8/2015,  Permitted,2 YEARS - 5 YEARS,147,No,ACS Contracted Preschools,-74.005824,40.638465
BROOKLYN COMMUNITY DAY CARE CENTERINC,BROOKLYN COMMUNITY DAY CARE CENTERINC,266 THROOP AVENUE,BROOKLYN,11206,718-963-3346,6567,4/20/2014,  Permitted,2 YEARS - 5 YEARS,26,No,Private,-73.94367,40.695133
BROOKLYN DEVELOPMENTAL CENTER EARLY CHILDHOOD SERVICES,BROOKLYN DEVELOPMENTAL CENTER EARLY CHILDHOOD SERVICES INC,888 FOUNTAIN AVENUE,BROOKLYN,11208,718-235-8800,6448,11/30/2014,  Permitted,2 YEARS - 5 YEARS,42,No,ACS Contracted Preschools,-73.865419,40.656042
BROOKLYN FREE SPACE,BROOKLYN FREE SPACE,298 6 AVENUE,BROOKLYN,11215,718-965-3135,7522,10/28/2015,  Permitted,2 YEARS - 5 YEARS,65,Yes,Private,-73.980809,40.6722
BROOKLYN HEIGHTS MONTESSORI SCHOOL,BROOKLYN HEIGHTS MONTESSORI SCHOOL,185 COURT STREET,BROOKLYN,11201,718-858-5100,5914,6/12/2015,  Permitted,2 YEARS - 5 YEARS,12,No,Private,-73.99293,40.687893
BROOKLYN HEIGHTS SYNAGOGUE PRESCHOOL,BROOKLYN HEIGHTS SYNAGOGUE,131 REMSEN STREET,BROOKLYN,11201,718-522-2070,7126,7/6/2015,  Permitted,2 YEARS - 5 YEARS,80,No,Private,-73.993149,40.693956
BROOKLYN INSTITUTE FOR CHILDREN,BIC DAY CARE CENTER INC,110 LENOX ROAD,BROOKLYN,11226,347-663-5467,6379,2/26/2015,  Permitted,2 YEARS - 5 YEARS,19,No,Private,-73.955794,40.653434
BROOKLYN TOTS ACADEMY  DAY CARE CENTER-PRESCHOOL / BROOKLYN TOTS ACADEMY  DAY CARE SERVICES-INFANT/TODDLER,ELITE KIDS SERVICES INC,2211 CONEY ISLAND AVENUE,BROOKLYN,11223,718-375-2002 / 917-545-6363,52498 / 52497,9/26/2015 / 9/26/2015,  Permitted /   Permitted,0 YEARS - 5 YEARS,64,No,Private,-73.961212,40.603266
BROTHERHOOD SYNAGOGUE NURSERY SCHOOL,BROTHERHOOD SYNAGOGUE,28 GRAMERCY PARK SOUTH,MANHATTAN,10003,212-995-9867,6975,6/2/2014,  Permitted,2 YEARS - 5 YEARS,51,No,Private,-73.985344,40.737236
BRYANS EDUCATIONAL CENTER,BRYANS EDUCATIONAL CENTER INC,3922 CHURCH AVENUE,BROOKLYN,11203,718-282-6944,8112,12/21/2015,  Permitted,2 YEARS - 5 YEARS,49,No,Private,-73.940219,40.651087
BRYANS EDUCATIONAL CENTER,BRYANS EDUCATIONAL CENTER INC,3924 CHURCH AVENUE,BROOKLYN,11203,718-282-6944,5362,9/19/2015,  Permitted,2 YEARS - 5 YEARS,61,No,Private,-73.940143,40.651044
BUBBLE BEES DAY CARE - PRESCHOOL / BUBBLE BEES DAY CARE CENTER INC- INFANT/TODDLER / BUMBLEBEES-R-US INC,BUBBLE BEE DAY CARELLC / BUBBLE BEE DAY CARE CENTER LLC / BUMBLEBEES-R-US INC,76 LORRAINE STREET,BROOKLYN,11231,718-858-8111,13318 / 13297 / 23657,3/8/2014 / 3/8/2014 / 10/1/2014,  Expired-InRenewal /   Expired-InRenewal /   Permitted,0 YEARS - 5 YEARS,151,Yes,Private / ACS Contracted Preschools,-74.006869,40.674155
BUCKLE MY SHOE NURSERY SCHOOL,TRIBECA NURSERY CENTER INC,230 WEST 13 STREET,MANHATTAN,10011,212-807-0518,4842,1/22/2014,  Expired-InRenewal,2 YEARS - 5 YEARS,30,No,Private,-74.001753,40.738371
BUCKLE MY SHOE NURSERY SCHOOL,TRIBECA NURSERY CENTER INC / TRIBECA NURSERY CENTERINC,40 WORTH STREET,MANHATTAN,10013,212-374-1489,5820 / 5849,7/15/2014 / 3/3/2015,  Permitted /   Permitted,0 YEARS - 5 YEARS,105,No,Private,-74.007022,40.717088
BUILDING BLOCKS DAY CARE CENTERLLC,BUILDING BLOCKS DAY CARE CENTERLLC,6810 20TH AVENUE,BROOKLYN,11204,718-331-2595,8164,5/20/2014,  Permitted,2 YEARS - 5 YEARS,24,No,Private,-73.988076,40.614709
BUILDING BLOCKS PRESCHOOL,KREATIVE KARE DAY CARE CENTER INC,455-459 WILSON AVENUE,BROOKLYN,11221,718-443-1333,30158 / 29858,1/4/2015 / 12/31/2014,  Permitted /   Permitted,0 YEARS - 5 YEARS,46,No,Private,-73.912292,40.693277
BUILDING BRIDGES AT CONGREGATION MT SINAI,BUILDING BRIDGES LLC,250 CADMAN PLAZA WEST,BROOKLYN,11201,347-334-6474,51877,9/11/2015,  Permitted,2 YEARS - 5 YEARS,25,No,Private,-73.991833,40.696496
BUMBLEBEES PS1,BUMBLEBEES DAY CARE PS 1 INC,501 8TH STREET,BROOKLYN,11215,718-499-9800,35178,3/11/2015,  Permitted,2 YEARS - 5 YEARS,24,Yes,Private,-73.978646,40.666694
BUMBLEBEES-R-US,BUMBLEBEES-R-US INC,4301 10TH AVENUE,BROOKLYN,11219,718-438-7040,27117,11/13/2014,  Permitted,2 YEARS - 5 YEARS,30,Yes,ACS Contracted Preschools,-73.995109,40.642165
BUMBLEBEES-R-US / SUNNY SKIES PRE-SCHOOL  2,BUMBLEBEES-R-US INC / SUNNY SKIES DC CORP,969  43RD STREET,BROOKLYN,11219,718-438-7040,27118 / 7952,11/13/2014 / 11/18/2014,  Permitted /   Permitted,2 YEARS - 5 YEARS,65,Yes,ACS Contracted Preschools / Private,-73.995512,40.642715
BUMBLEBEES-R-US DAY CARE CENTER / BUMBLEBEES-R-US INC,BUMBLEBEES-R-US INC,2813 FARRAGUT ROAD,BROOKLYN,11210,718-434-2337,27077 / 27057,11/13/2014 / 11/13/2014,  Permitted /   Permitted,0 YEARS - 5 YEARS,108,Yes,Private,-73.949372,40.63642
BUMBLEBEES-R-US INFANTS / BUMBLEBEES-R-US PRESCHOOL,BUMBLEBEES-R-US INC I/T / BUMBLEBEES-R-US INC,2734 VICTORY BLVD,STATEN ISLAND,10314,718-494-4448,8097 / 8098,12/7/2015 / 12/7/2015,  Permitted /   Permitted,0 YEARS - 5 YEARS,58,No,Private,-74.152705,40.608696
BURATINO INTERNATIONAL DAY CARE,BURATINO INTERNATIONAL DAY CARE INC,2962 BRIGHTON 1ST STREET,BROOKLYN,11235,718-368-2113,6520,1/21/2016,  Permitted,2 YEARS - 5 YEARS,40,No,Private,-73.966794,40.579113
BUSHWICK UNITED EARLY LEARN,BUSHWICK UNITED HOUSING DEVELOPMENT FUND CORPORATION,331 CENTRAL AVENUE,BROOKLYN,11221,718-453-9040,5235,2/13/2016,  Permitted,2 YEARS - 5 YEARS,35,Yes,ACS Head Start,-73.919607,40.695223
BUSHWICK UNITED HEAD START,BUSHWICK UNITED HOUSING DEVELOPMENT FUND CORPORATION,200 CENTRAL AVENUE,BROOKLYN,11221,718-453-5500,23599,9/29/2014,  Permitted,2 YEARS - 5 YEARS,130,No,ACS Contracted Preschools,-73.925956,40.698326
BUSHWICK UNITED HEAD START,BUSHWICK UNITED HOUSING DEVELOPMENT FUND CORPORATION,600 HART STREET,BROOKLYN,11221,347-695-1562,23377,9/27/2014,  Permitted,2 YEARS - 5 YEARS,110,No,ACS Contracted Preschools,-73.928172,40.697344
BUSHWICK UNITED HEAD START,BUSHWICK UNITED HOUSING DEVELOPMENT FUND CORPORATION INC,741 FLUSHING AVENUE,BROOKLYN,11206,347-497-3676,23718,10/1/2014,  Permitted,2 YEARS - 5 YEARS,72,No,ACS Contracted Preschools,-73.943107,40.700815
BUSHWICK UNITED HEAD START,BUSHWICK UNITED HOUSING DEVELOPMENT FUND CORPORATION,77 WILSON AVENUE,BROOKLYN,11237,718-821-2345,6200,9/13/2014,  Permitted,2 YEARS - 5 YEARS,72,No,ACS Head Start,-73.927691,40.702063
BUSHWICK UNITED HEAD START/DAY CARE 2,BUSHWICK UNITED HOUSING DEVELOPMENT FUND CORPORATION,152 MANHATTAN AVENUE,BROOKLYN,11206,718-388-4298,8202,7/1/2014,  Permitted,2 YEARS - 5 YEARS,110,No,ACS Contracted Preschools,-73.944776,40.708082
BUSHWICK UNITED HS/ EARLY LEARN CENTER,BUSHWICK UNITED HOUSING DEVELOPMENT FUND CORPORATION,136 STANHOPE STREET,BROOKLYN,11221,718-443-0134,7448,9/19/2015,  Permitted,2 YEARS - 5 YEARS,128,Yes,ACS Head Start,-73.922723,40.698043
BUSHWICK UNITED/JACKIE JOHNSON HEAD START,BUSHWICK UNITED HOUSING DEVELOPMENT FUND CORPORATION,178 LEONARD STREET,BROOKLYN,11206,347-296-8150,7923,9/23/2014,  Permitted,2 YEARS - 5 YEARS,39,No,ACS Head Start,-73.946692,40.71025
BUSY BEACH DAY CARE CENTER - P/S / BUSY BEACH DAY CARE CENTER I/T,BUSY BEACH DAY CARE CENTER INC,777 SEAVIEW AVENUE,STATEN ISLAND,10305,718-667-2861,5031 / 7667,11/6/2014 / 11/6/2015,  Permitted /   Permitted,0 YEARS - 5 YEARS,47,No,Private,-74.082786,40.583475
BUTTERCUP DAYCARE,BUTTERCUP DAYCARE INC,16 GLENMORE AVENUE,BROOKLYN,11212,347-378-2808,8268,3/21/2015,  Permitted,2 YEARS - 5 YEARS,19,No,Private,-73.910635,40.670849
BUTTERFLY,BUTTERFLY 1 INC,2770 EAST 16TH STREET,BROOKLYN,11235,718-646-6272,7896,7/22/2014,  Permitted,2 YEARS - 5 YEARS,47,No,Private,-73.952919,40.584128
BUTTERFLY DAY CARE,BUTTERFLY INC,2810 NOSTRAND AVENUE,BROOKLYN,11229,718-677-9343,6527,3/31/2016,  Permitted,2 YEARS - 5 YEARS,51,No,Private,-73.945077,40.615336
BWY INC,BWY INC,77-14 ROOSEVELT AVENUE,QUEENS,11372,718-205-4855,7939,10/8/2014,  Permitted,2 YEARS - 5 YEARS,155,No,Private,-73.888133,40.74694
CPC JACOB RIIS CHILD CARE CENTER,CHINESE AMERICAN PLANNING COUNCIL INC,108 AVENUE D,MANHATTAN,10009,212-533-9138,6418 / 6408,7/1/2015 / 1/9/2016,  Permitted /   Permitted,0 YEARS - 5 YEARS,45,Yes,ACS Contracted Preschools,-73.975708,40.723347
CALVARY DAY CARE CENTER,JOHN PEATS PASTOR/THE CALVARY CHURCH OF THE NAZARENE,474 EAST 96 STREET,BROOKLYN,11212,718-495-9271,6066,7/28/2015,  Permitted,2 YEARS - 5 YEARS,25,No,Private,-73.916378,40.656202
CAMBRIA CENTER FOR THE GIFTED CHILD,CAMBRIA CENTER FOR THE GIFTED CHILD,233-10 LINDEN BOULEVARD,QUEENS,11411,718-341-1991,6688,12/20/2014,  Permitted,2 YEARS - 5 YEARS,12,No,Private,-73.728637,40.690804
CAMBRIA HEIGHTS CHRISTIAN ACADEMY,CAMBRIA HEIGHTS GOSPEL CHAPEL,220-12 LINDEN BOULEVARD,QUEENS,11411,718-712-7034,8287,4/13/2015,  Permitted,2 YEARS - 5 YEARS,82,No,Private,-73.739635,40.694786
CANARSIE CHILDHOOD CENTER,CANARSIE CHILDHOOD CENTER INC,611 EAST 76TH STREET,BROOKLYN,11236,718-241-9211,50357,8/15/2015,  Permitted,2 YEARS - 5 YEARS,120,No,Private,-73.918372,40.635931
CANARSIES LITTLE EINSTEINS,CANARSIES LITTLE EINSTEINS,8413 AVENUE K,BROOKLYN,11236,718-251-5000,23857,10/2/2014,  Permitted,2 YEARS - 5 YEARS,72,No,Private,-73.906458,40.634586
CANDY KIDS PRESCHOOL DCC LLC / CANDY KIDS DAY CARE CENTER,JANET LAWRENCE,3212 CHURCH AVENUE,BROOKLYN,11226,718-287-6200,7123 / 7127,8/3/2015 / 9/29/2015,  Permitted /   Permitted,0 YEARS - 5 YEARS,79,No,Private,-73.947202,40.650678
CARDINAL MC CLOSKEY DAY CARE CENTER SITE 2,CARDINAL MC CLOSKEY SCHOOL  HOME FOR CHILDREN,899 EAST 180 STREET,BRONX,10460,718-220-3355,4856,11/4/2014,  Permitted,2 YEARS - 5 YEARS,107,No,ACS Contracted Preschools,-73.881799,40.845021
CARDINAL SPELLMAN HEAD START,LITTLE ANGELS HEAD START PROGRAM OF THE ARCHDIOCESE OF NEW YORK,137 EAST 2 STREET,MANHATTAN,10009,212-677-7766,2275,4/17/2014,  Permitted,2 YEARS - 5 YEARS,124,No,Head Start Direct Fed Funding,-73.986345,40.723001
CAREYS CHILD CARE CENTER,STEPS ELEMENTARY INC,432 EAST 92 STREET,BROOKLYN,11212,718-485-0111,7611,4/24/2014,  Permitted,2 YEARS - 5 YEARS,23,No,Private,-73.92067,40.655614
CARRIE MASTRONARDI EARLY CHILDHOOD EDUCATION CENTER,THE GUILD FOR EXCEPTIONAL CHILDREN INC,1273 57 STREET,BROOKLYN,11219,718-435-2554,4357,9/21/2014,  Permitted,2 YEARS - 5 YEARS,264,Yes,Private,-73.996905,40.630818
CARRIG MONTESSORI SCHOOL,CARRIG MONTESSORI LLC,100 MASPETH AVENUE,BROOKLYN,11211,718-388-1040,8152,4/5/2014,  Permitted,2 YEARS - 5 YEARS,41,No,Private,-73.939359,40.715769
CASA MONTESSORI,CASA MONTESSORI LLC,119 UNION STREET,BROOKLYN,11231,347-889-7309,8563,11/17/2015,  Permitted,2 YEARS - 5 YEARS,25,No,Private,-74.003171,40.684559
CASTLE  DAY CARE  INFANT/TODDLER / CASTLE DAY CARE PRESCHOOL,CASTLE DAY CARE CENTER CORP,1141 CASTLETON AVENUE,STATEN ISLAND,10310,718-447-3140,6650 / 6649,5/17/2015 / 5/17/2015,  Permitted /   Permitted,0 YEARS - 5 YEARS,81,No,Private,-74.120446,40.634472
CASTLE DAY CARE II / CASTLE DAY CARE II  I/T,CASTLE DAY CARE II INC,211 CANAL STREET,STATEN ISLAND,10304,718-448-5439,7488 / 7480,10/25/2015 / 10/25/2015,  Permitted /   Permitted,0 YEARS - 5 YEARS,80,No,Private,-74.079916,40.625143
CASTLETON HILL MORAVIAN PRE-SCHOOL,CASTLETON HILL MORAVIAN PRE-SCHOOL,1657 VICTORY BOULEVARD,STATEN ISLAND,10314,718-442-5350,5125,10/20/2014,  Permitted,2 YEARS - 5 YEARS,87,No,Private,-74.119131,40.613732
CCLC  90 PARK,CHILDRENS CREATIVE LEARNING CENTER / CHILDRENS CREATIVE LEARNING CENTER INC,90 PARK AVENUE,MANHATTAN,10016,212-661-1021,11920 / 11919,2/3/2014 / 2/3/2014,  Expired-InRenewal /   Expired-InRenewal,0 YEARS - 5 YEARS,64,No,Private,-73.979373,40.750742
CCLC AT 4 NY PLAZA / CREATIVE,CHILDRENS CREATIVE LEARNING CENTERS INC / CHILDRENS CREATIVE LEARNING CENTERS,4  NEW YORK PLAZA,MANHATTAN,10004,212-513-7367,21879 / 21878,8/31/2014 / 8/31/2014,  Permitted /   Permitted,0 YEARS - 5 YEARS,52,Yes,Private,-74.010715,40.702717
CCNS/ST MARGARET MARY ECDC,CATHOLIC CHARITIES NEIGHBORHOOD INC,9-16 27 AVE,QUEENS,11102,718-721-8065,5647,2/14/2015,  Permitted,2 YEARS - 5 YEARS,90,No,ACS Head Start,-73.930654,40.773491
CCS MONTESSORI CENTER,YSL COMMUNITY CORP,165-27 BAISLEY BOULEVARD,QUEENS,11434,718-276-9538,7018,5/28/2014,  Permitted,2 YEARS - 5 YEARS,45,No,Private,-73.777953,40.67999
CENTER FOR PRESCHOOL AND FAMILY LEARNING HEAD START,NORTHERN MANHATTAN PERINATAL PARTNERSHIP INC,529-531 WEST 155TH STREET,MANHATTAN,10032,212-926-8264,7909,9/9/2014,  Permitted,2 YEARS - 5 YEARS,120,No,ACS Head Start,-73.944629,40.832565
CENTER FOR PRESCHOOL AND FAMILY LEARNING HEAD START  2,NORTHERN MANHATTAN PERINATAL PARTNERSHIP INC,521-527 WEST 155TH STREET,MANHATTAN,10032,212-926-8264,7910,9/10/2014,  Permitted,2 YEARS - 5 YEARS,71,No,ACS Head Start,-73.944299,40.832432
CENTER OF EXCELLENCE II QUEENS VILLAGE INC,CENTER OF EXCELLENCE QUEENS VILLAGE INC,96-11 SPRINGFIELD BLVD,QUEENS,11429,212-931-4724,8348,6/9/2015,  Permitted,0 YEARS - 2 YEARS,13,No,Private,-73.734888,40.718184
CENTER OF EXCELLENCE QUEENS VILLAGE INC,CENTER OF EXCELLENCE QUEENS VILLAGE INC,96-13 SPRINGFIELD BLVD,QUEENS,11429,718-464-3600,8347,6/7/2015,  Permitted,2 YEARS - 5 YEARS,20,No,Private,-73.734888,40.718184
CENTER OF EXCELLENCE SPRINGFIELD GARDENS PRESCHOOL / CENTER OF EXCELLENCE SPRINGFIELD GARDENS INC INFANT-TODDLER,CENTER OF EXCELLENCE SPRINGFIELD GARDENS INC,127-08 MERRICK BLVD,QUEENS,11434,718-276-8200,8344 / 8345,6/2/2015 / 6/2/2015,  Permitted /   Permitted,0 YEARS - 5 YEARS,160,No,Private,-73.765112,40.681045
CENTRAL QUEENS Y EARLY CHILDHOOD,CENTRAL QUEENS YMYWHA INC,67-09 108 STREET,QUEENS,11375,718-268-5011,4936,9/8/2014,  Permitted,2 YEARS - 5 YEARS,114,No,Private,-73.847086,40.728712
CENTRAL SYNAGOGUE MAY FAMILY NURSERY SCHOOL,CENTRAL SYNAGOGUE,123 EAST 55 STREET,MANHATTAN,10022,212-838-5122,2285,11/14/2014,  Permitted,2 YEARS - 5 YEARS,109,No,Private,-73.970537,40.760092
CHABAD EARLY LEARNING CENTER,CHABAD LUBAVITCH OF THE WEST SIDEINC,166 WEST 97 STREET,MANHATTAN,10025,212-864-5010,7023,1/18/2015,  Permitted,2 YEARS - 5 YEARS,170,No,Private,-73.968932,40.794119
CHABAD EARLY LEARNING CENTER,CHABAD OF NORTHEASTERN QUEENSINC,212-12 26 AVENUE,QUEENS,11360,718-279-1457,7075,2/23/2015,  Permitted,2 YEARS - 5 YEARS,83,No,Private,-73.777312,40.778013
CHABAD OF GRAMERCY PARK,CHABAD OF GRAMERCY PARK INC,40 WEST 22ND STREET,MANHATTAN,10010,212-366-5053,51957,9/13/2015,  Permitted,2 YEARS - 5 YEARS,52,No,Private,-73.992303,40.741586
CHABAD PRESCHOOL,CHABAD LOBAVITCH OF THE UPPER EAST SIDE,419 EAST 77 STREET,MANHATTAN,10075,212-717-4613,7608,6/7/2014,  Permitted,2 YEARS - 5 YEARS,56,No,Private,-73.952776,40.770906
CHABAD PRESCHOOL  AT  BEEKMAN PLACE,UPPER MIDTOWN CHABAD LUBAVITCH INC,336 EAST 53RD STREET,MANHATTAN,10022,212-758-3770,8047,9/9/2013,  Expired-InRenewal,2 YEARS - 5 YEARS,26,No,Private,-73.965805,40.755985
CHAI TOTS PRESCHOOL / CHAI TOTS PRESCHOOLTODDLERS,THE RABBINICAL COMMITTEE OF BROWNSTONE BROOKLYN INC,70 PROSPECT PARK WEST,BROOKLYN,11215,718-499-0836,7013 / 7884,4/18/2014 / 4/8/2014,  Permitted /   Permitted,0 YEARS - 5 YEARS,38,No,Private,-73.973913,40.668562
CHAI TOTS PRESCHOOL  OF WINDSOR TERRACE PRESCHOOL  / CHAI TOTS PRESCHOOL OF WINDSOR TERRACE TODDLER,RABBINICAL COMMITTEE OF BROWNSTONE BROOKLYNINC / RABBINICAL COMMITTEE OF BROWNSTONE BROOKLYN INC/CHAI TOTS PRESCHOOL OF WINDSOR TERRACETODDLER,1266 PROSPECT AVENUE,BROOKLYN,11218,718-633-3979,7919 / 7918,9/9/2014 / 9/9/2014,  Permitted /   Permitted,0 YEARS - 5 YEARS,30,No,Private,-73.976303,40.652331
CHAI TOTS PRESCHOOL OF PROSPECT HEIGHTS  I/T / CHAI TOTS PRESCHOOL OF PROSPECT HEIGHTS  PRESCHOOL ,THE RABBINICAL COMMITTEE OF BROWNSTONE BROOKLYNINC / THE RABBINICAL COMMITTEE OF BROWNSTONE BROOKLYN INC,852 CLASSON AVENUE,BROOKLYN,11238,718-399-3979,7806 / 7807,10/15/2015 / 10/15/2015,  Permitted /   Permitted,0 YEARS - 5 YEARS,22,No,Private,-73.961332,40.671876
CHALLENGE EARLY INTERVENTION CENTER,CONGREGATION ATERES MORDECHI,1911 RICHMOND AVENUE,STATEN ISLAND,10314,718-972-0880,7922,9/2/2014,  Permitted,2 YEARS - 5 YEARS,10,No,Private,-74.162592,40.601225
CHALLENGE EARLY INTERVENTION CENTER,CONGREGATION ATERES MORDECHAI,649 39TH STREET,BROOKLYN,11232,718-851-3300,7654,9/13/2015,  Permitted,2 YEARS - 5 YEARS,49,No,Private,-73.999876,40.649116
CHARISMA CHRISTIAN ACADEMY,CHARISMA CHRISTIAN ACADEMY,921 EAST 107 STREET,BROOKLYN,11236,718-272-0505,7178,12/21/2013,  Expired-InRenewal,2 YEARS - 5 YEARS,26,No,Private,-73.892157,40.648147
CHARLES R DREW EARLY LEARNING,QUEENS COUNTY EDUCATORS FOR TOMORROWINC,109-45 207 STREET,QUEENS,11429,718-740-2400,4008,9/12/2015,  Permitted,2 YEARS - 5 YEARS,120,No,ACS Contracted Preschools,-73.750167,40.707898
CHARLES R DREW EARLY LEARNING CENTER  2 AT STARLIGHT,QUEENS COUNTY EDUCATORS FOR TOMORROW,165-15 ARCHER AVENUE,QUEENS,11433,718-523-7500,26238,10/24/2014,  Permitted,2 YEARS - 5 YEARS,70,No,ACS Contracted Preschools,-73.793496,40.704461
CHARLES R DREW EARLY LEARNING CENTER AT COMMUNITY COLLEGE CHILD CARE CENTER,QUEENS COUNTY EDUCATOR FOR TOMORROW INC,2804-06 GLENWOOD ROAD,BROOKLYN,11210,718-740-2400,26758,11/1/2014,  Permitted,2 YEARS - 5 YEARS,52,No,ACS Contracted Preschools,-73.949932,40.633907
CHELSEA DAY SCHOOL,CHELSEA DAY SCHOOL INC,319 5TH AVENUE,MANHATTAN,10016,212-675-8541,7814,10/11/2015,  Permitted,2 YEARS - 5 YEARS,120,No,Private,-73.985034,40.747111
CHELSEA PIERS I/T / CHELSEA PIERS PRE-SCHOOL,CHELSEA PIERSLP / CHELSEA PIERS LP,111A 11TH AVENUE,MANHATTAN,10011,212-336-6500,7552 / 7459,8/17/2013 / 8/22/2013,  Expired-InRenewal /   Expired-InRenewal,0 YEARS - 5 YEARS,62,Yes,Private,-74.008499,40.748299
CHERRY DAY CARE CENTER,CHERRY DAY CARE CENTER INC,43-43 BOWNE STREET,QUEENS,11355,718-445-5090,6843,12/17/2014,  Permitted,2 YEARS - 5 YEARS,36,No,Private,-73.818992,40.754685
CHICKPEAS CHILD CARE INC,CHICKPEAS CHILD CARE CENTER INC,451 7TH AVENUE,BROOKLYN,11215,718-788-6604,7663,11/13/2014,  Permitted,2 YEARS - 5 YEARS,20,No,Private,-73.984703,40.662792
CHILD DEVELOPMENT CENTER AT KINGSBOROUGH COMMUNITY COLLEGE - I/T / THE CHILD DEVELOPMENT CENTER OF KINGSBOROUGH CC,THE CITY UNIVERSITY OF NEW YORK KINGSBOROUGH COMMUNITY COLLEGE / CITY UNIVERSITY OF NEW YORK KINGSBOROUGH COMMUNITY COLLEGE,1915 ORIENTAL BOULEVARD,BROOKLYN,11235,718-368-5439 / 718-368-5868,17357 / 3050,5/31/2014 / 8/30/2014,  Permitted /   Permitted,0 YEARS - 5 YEARS,40,No,Private,-73.935673,40.578884
CHILD DEVELOPMENT CENTER AT QUEENS COLLEGE,CHILD DEVELOPMENT CENTER AT QUEENS COLLEGE,65-30 KISSENA BOULEVARD,QUEENS,11367,718-997-5885,5192,8/2/2014,  Permitted,2 YEARS - 5 YEARS,40,Yes,Private,-73.816375,40.73595
CHILD DEVELOPMENT CENTER OF THE JEWISH BOARD OF FAMILY  CHILDRENS SERVICES,JEWISH BOARD OF FAMILY AND CHILDRENS SERVICES INC,34  West 139 Street,MANHATTAN,10037,212-690-7234,8180,9/9/2014,  Permitted,2 YEARS - 5 YEARS,60,No,Private,-73.936861,40.815448
CHILD DEVELOPMENT CENTER OF THE MOSHOLU MONTEFIORE COMMUNITY CENTER,MOSHOLU MONTEFIORE COMMUNITY CENTER INC,3450 DEKALB AVENUE,BRONX,10467,718-654-0563,5991,7/6/2014,  Permitted,2 YEARS - 5 YEARS,162,No,ACS Contracted Preschools,-73.880733,40.881511
CHILD DEVELOPMENT SUPPORT CORPORATION HEAD START,CHILD DEVELOPMENT SUPPORT CORPORATION INC,802 KENT AVENUE,BROOKLYN,11205,718-222-8203,7198,2/5/2014,  Expired-InRenewal,2 YEARS - 5 YEARS,53,No,Head Start Direct Fed Funding,-73.960115,40.697153
CHILD PRODIGY LEARNING,CHILD PRODIGY LEARNING INC,1001 BROADWAY,BROOKLYN,11221,718-574-7558,7478,10/17/2015,  Permitted,2 YEARS - 5 YEARS,73,No,Private,-73.93336,40.69621
CHILD PRODIGY LEARNING CENTER II INC,CHILD PRODIGY LEARNING CENTER INC / CHILD PRODIGY LEARNING CENTER II INC,311 SARATOGA AVENUE,BROOKLYN,11233,718-485-5515,8226 / 8227,2/22/2015 / 9/4/2014,  Permitted /   Permitted,0 YEARS - 5 YEARS,29,No,Private / ACS Contracted Preschools,-73.916333,40.675169
CHILDREN AT PLAY EARLY INTERVENTION CENTER,CHILDREN AT PLAY EARLY INTERVENTION CENTERINC,40 MERRILL AVENUE,STATEN ISLAND,10314,718-370-7529,5967,12/28/2014,  Permitted,2 YEARS - 5 YEARS,24,No,Private,-74.162036,40.609814
CHILDREN OF THE FUTURE DAY CARE INC  2,CHILDREN OF THE FUTURE DAY CARE INC 2,5711 FLATLANDS AVENUE,BROOKLYN,11234,718-676-6444,16437,5/15/2014,  Permitted,2 YEARS - 5 YEARS,27,No,Private,-73.920974,40.630768
CHILDRENS AID SOCIETY - DREW HAMILTON DAYCARE,THE CHILDRENS AID SOCIETY,2672 FREDERICK DOUGLAS BLVD,MANHATTAN,10030,212-281-9555,6441,4/14/2014,  Permitted,2 YEARS - 5 YEARS,74,Yes,ACS Contracted Preschools,-73.942552,40.820838
CHILDRENS AID SOCIETY - TAFT DAY CARE CENTER,THE CHILDRENS AID SOCIETY,1724-26 MADISON AVENUE,MANHATTAN,10029,212-831-0556,6226,10/9/2015,  Permitted,2 YEARS - 5 YEARS,55,Yes,ACS Contracted Preschools,-73.946325,40.798491
CHILDRENS AID SOCIETY EAST HARLEM CENTER HEAD START,THE CHILDRENS AID SOCIETY,130 EAST 101 STREET,MANHATTAN,10029,212-348-2343,2159,6/18/2014,  Permitted,2 YEARS - 5 YEARS,28,Yes,ACS Head Start,-73.949356,40.789124
CHILDRENS ALL DAY PRE - NURSERY SCHOOL,CHILDRENS ALL DAY PRE-NURSERY,111 EAST 60TH STREET,MANHATTAN,10022,212-752-4566,4748,4/21/2014,  Permitted,0 YEARS - 2 YEARS,21,No,Private,-73.968671,40.763443
CHILDRENS ALL DAY SCHOOL,CHILDRENS ALL DAY SCHOOL,109 EAST 60 STREET,MANHATTAN,10022,212-752-4566,4270,10/13/2014,  Permitted,2 YEARS - 5 YEARS,64,No,Private,-73.968738,40.763465
CHILDRENS ARK DAY CARE CENTER INC,CHILDRENS ARK DAY CARE CENTER INC,9130 AVENUE L,BROOKLYN,11236,718-513-3876,7070,12/30/2014,  Permitted,2 YEARS - 5 YEARS,25,No,Private,-73.898837,40.6361
CHILDRENS BIG APPLE,CHILDRENS BIG APPLE,37-03 94 STREET,QUEENS,11372,718-565-5311,4952,5/2/2015,  Permitted,2 YEARS - 5 YEARS,90,No,Private,-73.87269,40.75073
CHILDRENS BIG APPLE EARLY CHILDHOOD CTRINC,CHILDRENS BIG APPLE EARLY CHILDHOOD CENTER INC,41-26 CASE STREET,QUEENS,11373,718-651-6919,6957,1/18/2016,  Permitted,2 YEARS - 5 YEARS,18,No,Private,-73.873657,40.746702
CHILDRENS CENTER OF JOHN JAY COLLEGE,CHILDRENS CENTER OF JOHN JAY COLLEGE,860 11TH AVENUE,MANHATTAN,10019,212-237-8310,47618 / 47619,7/11/2015 / 7/11/2015,  Permitted /   Permitted,0 YEARS - 5 YEARS,62,No,Private,-73.989718,40.770879
CHILDRENS CORNER,UNIVERSITY SETTLEMENT SOCIETY OF NEW YORK,565 LIVONIA AVENUE,BROOKLYN,11207,718-346-3470,8059,8/17/2013,  Expired-InRenewal,2 YEARS - 5 YEARS,188,Yes,ACS Contracted Preschools,-73.896265,40.664669
CHILDRENS CORNER,CHILDRENS CORNER OF BROOKLYN LTD,69 STRATFORD ROAD,BROOKLYN,11218,718-287-9611,4850,5/12/2014,  Permitted,2 YEARS - 5 YEARS,40,No,Private,-73.969218,40.647273
CHILDRENS CORNER LEARNING CENTER,CENTER MANAGEMENT ASSOCIATES INC,1200 WATERS PLACE,BRONX,10461,718-239-1062,7496 / 7497,10/20/2015 / 10/25/2015,  Permitted /   Permitted,0 YEARS - 5 YEARS,113,No,Private,-73.836858,40.852863
CHILDRENS GROWING PLACE,CENTER FOR THE ELIMINATION OF VIOLENCE IN THE FAMILY,362 51 Street,BROOKLYN,11220,718-439-4612,5571,10/19/2014,  Permitted,2 YEARS - 5 YEARS,15,No,ACS Contracted Preschools,-74.01389,40.646063
CHILDRENS HARBOR MONTESSORI SCHOOL,CHILDRENS HARBOR MONTESSORI SCHOOL,1000 RICHMOND TERRACE,STATEN ISLAND,10301,718-442-6112,51778,9/10/2015,  Permitted,2 YEARS - 5 YEARS,80,No,Corporate,-74.103184,40.642159
CHILDRENS HERMESHE WORKSHOP,CHILDRENS HEIMESHE WORKSHOP INC,1454 OCEAN PARKWAY,BROOKLYN,11230,718-339-0755,54678,12/2/2015,  Permitted,2 YEARS - 5 YEARS,20,No,Private,-73.969004,40.613212
CHILDRENS KINGDOM INC,CHILDRENS KINGDOM INC,3321 AVENUE I,BROOKLYN,11210,718-677-1315,7489,10/6/2015,  Permitted,2 YEARS - 5 YEARS,25,No,Private,-73.943651,40.629738
CHILDRENS KINGDOM INC,CHILDRENS KINGDOM INC - / CHILDRENS KINGDOM INC,3315 AVENUE I,BROOKLYN,11210,718-677-1315,6715 / 6713,10/7/2015 / 12/13/2015,  Permitted /   Permitted,0 YEARS - 5 YEARS,55,No,Private,-73.943789,40.629716
CHILDRENS KINGDOM INC / CHILDRENS KINGDOM INC -  I/T,CHILDRENS KINGDOM INC,3317 AVENUE I,BROOKLYN,11210,718-677-1315,7672 / 7629,6/7/2015 / 6/9/2015,  Permitted /   Permitted,0 YEARS - 5 YEARS,22,No,Private,-73.943789,40.629716
CHILDRENS KINGDOM INC 3,CHILDRENS KINGDOM INC,3319 AVENUE I,BROOKLYN,11210,718-677-1315,7211,3/6/2014,  Expired-InRenewal,2 YEARS - 5 YEARS,20,No,Private,-73.943722,40.629734
CHILDRENS LEARNING CENTER,LEAKE AND WATTS SERVICES INC,310 WEST 103 STREET,MANHATTAN,10025,212-678-9555,8247,1/3/2015,  Permitted,2 YEARS - 5 YEARS,45,No,Private,-73.970804,40.799813
CHILDRENS LEARNING CENTER INFANT/TODDLER / THE CHILDRENS LEARNING CENTER AT MORNINGSIDE HEIGHTS,THE CHILDRENS LEARNING CENTER AT MORNINGSIDE HEIGHTS,90 LASALLE STREET,MANHATTAN,10027,212-663-9318,6888 / 6887,11/21/2014 / 6/10/2015,  Permitted /   Permitted,0 YEARS - 5 YEARS,40,No,Private,-73.958892,40.813377
CHILDRENS LEARNING COMPANY INC,CHILDRENS LEARNING COMPANY INC,210 WEST 233 STREET,BRONX,10463,718-432-1170,7643,9/26/2014,  Permitted,2 YEARS - 5 YEARS,30,No,Private,-73.904047,40.880955
CHILDRENS PALACE DAY CARE CENTER,CHILDRENS PALACE DAY CARE INC,743 EAST 43 STREET,BROOKLYN,11203,718-284-1290,8053,7/22/2015,  Permitted,2 YEARS - 5 YEARS,34,No,Private,-73.935394,40.637189
CHILDRENS PALACE DAY CARE CENTER I/T,CHILDRENS PALACE DAY CARE INC,743 EAST 43RD STREET,BROOKLYN,11203,718-284-1290,8052,7/22/2015,  Permitted,0 YEARS - 2 YEARS,10,No,Private,-73.935394,40.637189
CHILDRENS PARADISE DAY CARE INC,CHILDRENS PARADISE DAY CARE INC,600 NEW YORK AVE,BROOKLYN,11203,718-604-4600,7612,6/8/2014,  Permitted,2 YEARS - 5 YEARS,25,No,Private,-73.947989,40.659926
CHILDRENS PARADISE DAYCARE,CHILDRENS PARADISE DAYCARE INC,942 BERGEN STREET,BROOKLYN,11238,718-398-4400,7761,5/29/2015,  Permitted,2 YEARS - 5 YEARS,25,No,Private,-73.955971,40.676678
CHINATOWN  DAY CARE CENTER,CHINATOWN DAY CARE CENTERINC,35-371/2 DIVISION STREET,MANHATTAN,10002,212-431-3845,4914,5/23/2015,  Permitted,2 YEARS - 5 YEARS,160,No,Private,-73.995759,40.713988
CHINATOWN HEAD START,CHINESE COMMUNITY CONCERNS CORP,180 MOTT STREET,MANHATTAN,10012,212-226-5000,7042,8/14/2014,  Permitted,2 YEARS - 5 YEARS,96,No,ACS Head Start,-73.995617,40.720546
CHOO CHOO TRAIN DAY CARE,CHOO CHOO TRAIN DAYCARE INC,539 COURT STREET,BROOKLYN,11231,718-797-9050,7542,1/24/2016,  Permitted,2 YEARS - 5 YEARS,23,No,Private,-73.999527,40.674352
CHRIST CHURCH DAY SCHOOL,CHRIST CHURCH DAY SCHOOL,520 PARK AVENUE,MANHATTAN,10065,212-838-3039,1789,2/19/2014,  Expired-InRenewal,2 YEARS - 5 YEARS,75,No,Private,-73.969645,40.763888
CHRIST EVANGELICAL CHURCH,CHRIST CHILD CARE CENTER,58-01 BROADWAY,QUEENS,11414,718-205-1425,7715,1/26/2015,  Permitted,2 YEARS - 5 YEARS,35,No,Private,-73.903164,40.751672
CHRIST THE KING COMMUNITY  PRESCHOOL / CHRIST THE KING COMMUNITY DAY CARE INFANT/TODDLER,CHRIST THE KING CONTINUING EDUCATIONINC / CHRIST THE KING CONTINUING EDUCATION INC,68-02 METROPOLITAN AVENUE,QUEENS,11379,718-417-6770,5852 / 5867,6/25/2014 / 6/29/2015,  Permitted /   Permitted,0 YEARS - 5 YEARS,229,Yes,Private,-73.888547,40.71081
CHRIST UNITED METHODIST HEAD START,THE UNITED METHODIST CITY SOCIETY,4419 7 AVENUE,BROOKLYN,11220,718-435-6540,4996,8/17/2014,  Permitted,2 YEARS - 5 YEARS,39,No,ACS Head Start,-74.002588,40.645217
CHRISTIAN TRAINING RECREATION MINISTRY,CHRISTIAN TRAINING RECREATION MINISTRY,14-25 BEACH CHANNEL DRIVE,QUEENS,11691,718-327-1284,5405,2/19/2014,  Expired-InRenewal,2 YEARS - 5 YEARS,29,No,Private,-73.754196,40.608962
CHUNG PAK DAY CARE CENTER,CHINESE-AMERICAN PLANNING COUNCIL INC,125 WALKER STREET,MANHATTAN,10013,212-343-9630,5910,8/9/2014,  Permitted,2 YEARS - 5 YEARS,75,No,ACS Contracted Preschools,-73.999946,40.717312
CHURCH IN THE GARDENS,THE CHURCH IN THE GARDENS NURSERY SCHOOL,50 ASCAN AVENUE,QUEENS,11375,718-268-7980,5561,4/25/2015,  Permitted,2 YEARS - 5 YEARS,56,No,Private,-73.84148,40.716363
CHURCH OF THE HOLY CHILD PRESCHOOL,ROMAN CATHOLIC CHURCH OF THE HOLY CHILD,4747 AMBOY ROAD,STATEN ISLAND,10312,718-356-5159,8190,7/1/2014,  Permitted,2 YEARS - 5 YEARS,100,No,Private,-74.170601,40.540205
CINDERELLA DAY CARE CENTER INC,CINDERELLA DAY CARE CENTER INC,130 BRIGHTON 11 STREET,BROOKLYN,11235,718-743-1841,5531,9/25/2014,  Permitted,2 YEARS - 5 YEARS,37,No,Private,-73.95817,40.579794
CIRCLE TRIANGLE SQUARE DAY CARE / CIRCLE TRIANGLE SQUARE DAY CARE INC,CIRCLE TRIANGLE SQUARE DAY CARE INC,2720 86TH STREET,BROOKLYN,11223,718-373-2234,11877 / 11857,2/2/2016 / 2/2/2016,  Permitted /   Permitted,0 YEARS - 5 YEARS,28,No,Private,-73.98145,40.594205
CITIZENS CARE DAY CARE CENTER  III,CITIZENS CARE DAY CARE CENTER INC,3240 BROADWAY,MANHATTAN,10027,212-690-0742,4831,9/17/2015,  Permitted,2 YEARS - 5 YEARS,119,No,ACS Contracted Preschools,-73.956954,40.81687
CITIZENS CARE DAY CARE CENTER I,CITIZENS CARE DAY CARE CENTER I,131 ST NICHOLAS AVENUE,MANHATTAN,10026,212-666-1683,2055,3/5/2014,  Expired-InRenewal,2 YEARS - 5 YEARS,40,No,ACS Contracted Preschools,-73.953155,40.804086
CITY AND COUNTRY SCHOOL,CITY AND COUNTRY SCHOOL INC,165 WEST 12 STREET,MANHATTAN,10011,212-242-7802,7002,11/30/2014,  Permitted,2 YEARS - 5 YEARS,66,No,Private,-73.999736,40.737016
CITY COLLEGE CHILD DEVELOPMENT CENTERINC,CITY COLLEGE CHILD DEVELOPMENT CENTERINC,160 CONVENT AVENUE,MANHATTAN,10031,212-650-8616,4035,2/26/2014,  Expired-InRenewal,2 YEARS - 5 YEARS,45,No,Private,-73.950865,40.819852
CITY OF FAITH CHRISTIAN  ACADEMY,CITY OF FAITH CHURCH OF GOD INC,3453 WHITEPLAINS ROAD,BRONX,10467,718-798-3052,6416,8/30/2015,  Permitted,2 YEARS - 5 YEARS,29,No,Private,-73.867433,40.876906
CITY OF FAITH CHRISTIAN ACADEMY  I I,CITY OF FAITH COMMUNITY DEVELOPMENT CORP,3445 WHITE PLAINS RD,BRONX,10467,718-798-3052,7831,10/15/2015,  Permitted,2 YEARS - 5 YEARS,35,No,Private,-73.867433,40.876663
CITY UNIVERSITY OF NEW YORK SCHOOL OF LAW P/S / CITY UNIVERSITY OF NEW YORK SCHOOL OF LAWI/T,CITY UNIVERSITY OF NEW YORK SCHOOL OF LAW,23-21 44TH DRIVE,QUEENS,11101,718-340-4468,21598 / 21597,8/28/2014 / 8/28/2014,  Permitted /   Permitted,0 YEARS - 5 YEARS,15,No,Corporate,-73.944373,40.747603
CLARK SCHOOL - NEW YORK,CLARKE SCHOOL FOR THE DEAF,80 EAST END AVENUE,MANHATTAN,10028,212-585-3500,6813,1/8/2015,  Permitted,2 YEARS - 5 YEARS,55,No,Private,-73.946403,40.773296
CLARKSON REALTY CORP INC,CLARKSON EARLY CHILDHOOD CENTER,8801 GLENWOOD ROAD,BROOKLYN,11236,718-649-3488,7318,8/10/2014,  Permitted,2 YEARS - 5 YEARS,33,No,Private,-73.909196,40.641013
CLOVER CAMPBELL,KIDDIE PREP U,108-10 SUTPHIN BLVD,QUEENS,11435,718-206-1736,8367,8/22/2015,  Permitted,2 YEARS - 5 YEARS,60,No,Private,-73.79942,40.692646
CMCS/CONCORD AVENUE HEAD START PROGRAM,CARDINAL MCCLOSKEY SCHOOL AND HOME FOR CHILDREN,560 CONCORD AVENUE,BRONX,10455,718-292-8564,56137,1/22/2016,  Permitted,2 YEARS - 5 YEARS,120,No,ACS Contracted Preschools,-73.907887,40.813272
CNC CARE CENTER INC,CNC CARE CENTER INC,647 ROGERS AVENUE,BROOKLYN,11226,718-284-0172,6699,9/14/2015,  Permitted,2 YEARS - 5 YEARS,17,Yes,Private,-73.952775,40.655714
CO-OP CITY N A A C P DAY CARE CENTER,CO-OP CITY N A A C P DAY CARE CENTER,100 ERSKINE PLACE,BRONX,10475,718-671-8519,2315,3/5/2015,  Permitted,2 YEARS - 5 YEARS,43,No,Private,-73.82136,40.861747
COBBLE HILL PLAYSCHOOL INC,COBBLE HILL PLAYSCHOOL INC,653 HICKS STREET,BROOKLYN,11231,718-243-0440,7547,2/3/2016,  Permitted,2 YEARS - 5 YEARS,45,No,Private,-74.002518,40.680725
COLIN NEWELL EARLY CHILDHOOD DEVELOPMENT CENTERHEAD START,CATHOLIC CHARITIES NEIGHBORHOOD SERVICES INC,161-06 89 AVENUE,QUEENS,11432,718-523-1888,7392,5/23/2015,  Permitted,2 YEARS - 5 YEARS,112,No,ACS Head Start,-73.799563,40.706197
COLONIAL CHURCH NURSERY SCHOOL,COLONIAL CHURCH OF BAYSIDE,54-02 217 STREET,QUEENS,11364,718-224-3899,2299,5/12/2014,  Permitted,2 YEARS - 5 YEARS,29,No,Private,-73.763339,40.752268
COLONY-SOUTH BROOKLYN HOUSES INC,COLONY-SOUTH BROOKLYN HOUSES INC,222 GRAHAM AVENUE,BROOKLYN,11206,718-387-9482,4207,1/14/2015,  Permitted,2 YEARS - 5 YEARS,60,No,Private,-73.943197,40.709867
COLUMBIA GREENHOUSE NURSERY SCHOOL,COLUMBIA GREENHOUSE NURSERY SCHOOL,404 WEST 116 STREET,MANHATTAN,10027,212-666-4796,2049,12/16/2013,  Expired-InRenewal,2 YEARS - 5 YEARS,50,Yes,Private,-73.960006,40.806093
COLUMBIA GREENHOUSE NURSERY SCHOOL,COLUMBIA GREENHOUSE NURSERY SCHOOL,424 WEST 116 STREET,MANHATTAN,10027,212-666-4796,1484,12/16/2013,  Expired-InRenewal,2 YEARS - 5 YEARS,30,No,Private,-73.960371,40.806254
COLUMBIA UNIVERSITY HEADSTART,THE TRUSTEES OF COLUMBIA UNIVERSITY IN THE CITY OF NEW YORK INC,4467 BROADWAY,MANHATTAN,10040,212-923-5237,40717,5/20/2015,  Permitted,2 YEARS - 5 YEARS,50,No,Private,-73.93254,40.857644
COLUMBUS PRE-SCHOOL,COLUMBUS TOWNHOUSE NURSERY INC,606 COLUMBUS AVENUE,MANHATTAN,10024,212-721-0090,6360,6/13/2015,  Permitted,2 YEARS - 5 YEARS,80,No,Private,-73.970843,40.788868
COMMITTEE FOR EARLY CHILDHOOD DEVELOPMENT,COMMITTEE FOR EARLY CHILDHOOD DEVELOPMENT DAY CARE CENTER INC,193-25 JAMAICA AVENUE,QUEENS,11423,718-264-6572,52558,9/27/2015,  Permitted,2 YEARS - 5 YEARS,90,Yes,Private,-73.766422,40.713535
COMMITTEE FOR EARLY CHILDHOOD DEVELOPMENT HEAD START,COMMITTEE FOR EARLY CHILDHOOD DEVELOPMENT DCCINC,117-21 SUTPHIN BOULEVARD,QUEENS,11436,718-848-0276,8199,9/15/2014,  Permitted,2 YEARS - 5 YEARS,246,Yes,ACS Head Start,-73.791633,40.680062
COMMITTEE FOR EARLY CHILDHOOD DEVELOPMENT HEAD START,COMMITTEE FOR EARLY CHILDHOOD DEVELOPMENT DAY CARE CENTER INCORPORATED,193-04 JAMAICA AVENUE,QUEENS,11423,718-464-2422,4984,3/30/2015,  Permitted,2 YEARS - 5 YEARS,146,Yes,ACS Head Start,-73.767037,40.712918
COMMUNITY  FAMILY HEAD START,COMMUNITY PARENTS INC,41-05 BEACH CHANNEL DRIVE,QUEENS,11691,718-471-7970,7639,9/8/2014,  Permitted,2 YEARS - 5 YEARS,113,Yes,ACS Head Start,-73.773135,40.595499
COMMUNITY CHURCH OF DOUGLASTON NURSERY SCH,LINDEN DE BIE CCD,39-50 DOUGLASTON PARKWAY,QUEENS,11363,718-767-1961,983,4/26/2014,  Permitted,2 YEARS - 5 YEARS,20,No,Private,-73.750393,40.769357
COMMUNITY HOUSE NURSERY AND KINDERGARTEN,CHURCH IN THE GARDENS COMMUNITY HOUSE,15 BORAGE PLACE,QUEENS,11375,718-268-0490,1546,6/25/2014,  Permitted,2 YEARS - 5 YEARS,42,No,Private,-73.841136,40.716378
COMMUNITY LIFE CENTER  INC ARTHUR EUGENE  THELMA  ADAIR  HEAD START,COMMUNITY LIFE CENTER INC,221 EAST 122 STREET,MANHATTAN,10035,212-427-6800,7182,1/25/2016,  Permitted,2 YEARS - 5 YEARS,159,No,ACS Head Start,-73.936284,40.801588
COMMUNITY LIFE CENTER MT MORRIS HEAD START,COMMUNITY LIFE CENTERINC ARTHUR EUGENE  THELMA ADAIR HEAD START,15 MOUNT MORRIS PARK WEST,MANHATTAN,10027,212-427-1077,8049,9/23/2015,  Permitted,2 YEARS - 5 YEARS,135,No,ACS Head Start,-73.945698,40.805082
COMMUNITY NURSERY SCHOOL AT THE CHURCH ON THE HILL,THE CHURCH ON THE HILL - REFORMED,167-07 35 AVENUE,QUEENS,11358,718-539-0732,2323,6/30/2015,  Permitted,2 YEARS - 5 YEARS,44,No,Private,-73.798113,40.765299
COMMUNITY PARENTS HEAD START,COMMUNITY PARENTS INC,90 CHAUNCEY STREET,BROOKLYN,11233,718-771-4002,4639,7/1/2015,  Permitted,2 YEARS - 5 YEARS,60,Yes,ACS Head Start,-73.929795,40.679989
COMMUNITY RESOURCES PRE-SCHOOL,STATEN ISLAND AID FOR THE MENTALLY RETARDED INC,3651 RICHMOND ROAD,STATEN ISLAND,10306,718-351-6416,6674,5/16/2015,  Permitted,2 YEARS - 5 YEARS,81,Yes,Private,-74.143089,40.572548
COMPREHENSIVE,COMPREHENSIVE KIDS DEVELOPMENT CENTER,101 NORFOLK STREET,MANHATTAN,10002,917-414-2344,17017,5/22/2014,  Permitted,2 YEARS - 5 YEARS,57,No,Private,-73.987421,40.718697
COMPREHENSIVE KIDS DEVELOPMENTAL SCHOOL,COMPREHENSIVE KIDS DEVELOPMENTAL SCHOOL,383-387 GRAND STREET,MANHATTAN,10002,212-539-0259,7872,3/17/2016,  Permitted,2 YEARS - 5 YEARS,100,No,Private,-73.988338,40.715638
CONCERNED PARENTS OF JAMAICA EARLY LEARNING CENTER,CLIFFORD GLOVER DAY CARE CENTER INC,143-04 101 AVENUE,QUEENS,11435,718-658-4091,25257,10/16/2014,  Permitted,2 YEARS - 5 YEARS,129,No,ACS Contracted Preschools,-73.807934,40.694815
CONCOURSE HOUSE DAY CARE CENTER,CONCOURSE HOUSE,2751 GRAND CONCOURSE,BRONX,10468,718-584-4400,6239,9/5/2015,  Permitted,2 YEARS - 5 YEARS,38,No,ACS Contracted Preschools,-73.89327,40.868356
CONEY ISLAND CHILD CARE CENTER,LABOR  INDUSTRY FOR EDUCATION INC,2757 WEST 33RD STREET,BROOKLYN,11224,718-942-4494,24617,10/11/2014,  Permitted,2 YEARS - 5 YEARS,58,No,ACS Contracted Preschools,-73.999068,40.578413
CONEY ISLAND DAY CARE,CONEY ISLAND DAY CARE INC,1001 NEWKIRK AVENUE,BROOKLYN,11230,347-915-0831,19317,7/23/2014,  Permitted,2 YEARS - 5 YEARS,99,No,Private,-73.966956,40.634027
CONGREGATION BNAI ISRAEL ACADEMY PRESCHOOL,CONGREGATION BNAI ISRAEL OF STATEN ISLAND,45 TWOMBLY AVENUE,STATEN ISLAND,10306,718-987-6200,7852,2/4/2016,  Permitted,2 YEARS - 5 YEARS,26,No,Private,-74.132645,40.559146
CONGREGATION BETH ELOHIM  ECC,CONGREGATION BETH ELOHIM ECC,274 GARFIELD PLACE,BROOKLYN,11215,718-499-6208,4892,9/22/2014,  Permitted,2 YEARS - 5 YEARS,200,No,Private,-73.974552,40.670856
CONGREGATION BNEI YONASAN,CONGREGATION BNEI YONASAN,1362 46TH STREET,BROOKLYN,11219,718-438-1825,50317,8/15/2015,  Permitted,2 YEARS - 5 YEARS,30,No,Private,-73.988953,40.635593
CONGREGATION OF THE MOTHERS OF THE HELPLESS INC,CONGREGATION OF THE MOTHERS OF THE HELPLESS INC,432 WEST 20 STREET,MANHATTAN,10011,212-929-0839,6880,9/18/2013,  Expired-InRenewal,0 YEARS - 2 YEARS,8,No,Private,-74.00438,40.745023
CONGREGATION OF THE MOTHERS OF THE HELPLESS INC,CONGREGATION OF THE MOTHERS OF THE HELPLESS INC,432 WEST 20TH STREET,MANHATTAN,10011,212-929-0839,1382,3/8/2013,  Expired-InRenewal,2 YEARS - 5 YEARS,57,No,Private,-74.00438,40.745023
CONGREGATION OHEL YITZCHOK,CONGREGATION OHEL YITZCHOK,137-56 70 AVENUE,QUEENS,11367,718-261-7037,5218,4/28/2014,  Permitted,2 YEARS - 5 YEARS,70,No,Private,-73.826105,40.728344
COOPER PARK CHILD CARE CENTER,EPISCOPAL SOCIAL SERVICES OF NEW YORK INC,292 FROST STREET,BROOKLYN,11222,718-389-5959,5281,2/12/2015,  Permitted,2 YEARS - 5 YEARS,55,No,ACS Contracted Preschools,-73.939602,40.71854
CORNERSTONE DAY CARE CENTER,CORNERSTONE DAY CARE CENTER INC,289 LEWIS AVENUE,BROOKLYN,11221,718-574-8300,2267,7/8/2014,  Permitted,2 YEARS - 5 YEARS,68,No,ACS Contracted Preschools,-73.935423,40.68594
CORTELYOU  EARLY CHILDHOOD CENTER INC,CORTELYOU EARLY CHILDHOOD CENTER INC,2739  BEDFORD AVENUE,BROOKLYN,11210,718-421-9581,7676,12/4/2014,  Permitted,2 YEARS - 5 YEARS,36,No,Private,-73.953147,40.636029
CORTELYOU EARLY CHILDHOOD CENTER INC,CORTELYOU EARLY CHILDHOOD CENTER INC,386 MARLBOROUGH ROAD,BROOKLYN,11226,718-856-2880,6644,4/19/2015,  Permitted,2 YEARS - 5 YEARS,70,No,Private,-73.96461,40.640635
CORTELYOU EARLY CHILDHOOD CENTER INC,CORTELYOU EARLY CHILDHOOD CENTER INC,1110 CORTELYOU ROAD,BROOKLYN,11218,718-282-6077,5481,3/2/2016,  Permitted,2 YEARS - 5 YEARS,66,No,Private,-73.967475,40.639617
